{
"type": "FeatureCollection",
"name": "wa-hospitals",
"crs": { "type": "name", "properties": { "name": "urn:ogc:def:crs:OGC:1.3:CRS84" } },
"features": [
{ "type": "Feature", "properties": { "NAME": "Multicare Deaconess Hospital", "HOSPITAL_TYPE": "Acute Care Hospitals", "OWNERSHIP_TYPE": "Voluntary non-profit - Private", "ADDRESS": "800 W 5th Ave", "CITY": "Spokane", "COUNTY": "Spokane", "STATE": "WA", "ZIP_CODE": "99204", "LNG": -117.4233359, "LAT": 47.651936 }, "geometry": { "type": "Point", "coordinates": [ -117.4233359, 47.651936 ] } },
{ "type": "Feature", "properties": { "NAME": "Overlake Hospital Medical Center", "HOSPITAL_TYPE": "Acute Care Hospitals", "OWNERSHIP_TYPE": "Voluntary non-profit - Other", "ADDRESS": "1035 116th Ave NE", "CITY": "Bellevue", "COUNTY": "King", "STATE": "WA", "ZIP_CODE": "98004", "LNG": -122.1868467, "LAT": 47.6208345 }, "geometry": { "type": "Point", "coordinates": [ -122.1868467, 47.6208345 ] } },
{ "type": "Feature", "properties": { "NAME": "Tacoma General Allenmore Hospital", "HOSPITAL_TYPE": "Acute Care Hospitals", "OWNERSHIP_TYPE": "Voluntary non-profit - Private", "ADDRESS": "315 M.L.K. Jr Way", "CITY": "Tacoma", "COUNTY": "Pierce", "STATE": "WA", "ZIP_CODE": "98405", "LNG": -122.4529681, "LAT": 47.2593601 }, "geometry": { "type": "Point", "coordinates": [ -122.4529681, 47.2593601 ] } },
{ "type": "Feature", "properties": { "NAME": "Lincoln Hospital", "HOSPITAL_TYPE": "Critical Access Hospitals", "OWNERSHIP_TYPE": "Government - Hospital District or Authority", "ADDRESS": "10 Nichols St", "CITY": "Davenport", "COUNTY": "Lincoln", "STATE": "WA", "ZIP_CODE": "99122", "LNG": -118.1454984, "LAT": 47.6579165 }, "geometry": { "type": "Point", "coordinates": [ -118.1454984, 47.6579165 ] } },
{ "type": "Feature", "properties": { "NAME": "Mary Bridge Children's Hospital", "HOSPITAL_TYPE": "Childrens", "OWNERSHIP_TYPE": "Voluntary non-profit - Other", "ADDRESS": "317 M.L.K. Jr Way", "CITY": "Tacoma", "COUNTY": "Pierce", "STATE": "WA", "ZIP_CODE": "98405", "LNG": -122.4526369, "LAT": 47.2583589 }, "geometry": { "type": "Point", "coordinates": [ -122.4526369, 47.2583589 ] } },
{ "type": "Feature", "properties": { "NAME": "Lake Chelan Community Hospital", "HOSPITAL_TYPE": "Critical Access Hospitals", "OWNERSHIP_TYPE": "Government - Hospital District or Authority", "ADDRESS": "503 E Highland Ave", "CITY": "Chelan", "COUNTY": "Chelan", "STATE": "WA", "ZIP_CODE": "98816", "LNG": -120.0099265, "LAT": 47.8449189 }, "geometry": { "type": "Point", "coordinates": [ -120.0099265, 47.8449189 ] } },
{ "type": "Feature", "properties": { "NAME": "Lourdes Medical Center", "HOSPITAL_TYPE": "Critical Access Hospitals", "OWNERSHIP_TYPE": "Voluntary non-profit - Church", "ADDRESS": "520 N 4th Ave", "CITY": "Pasco", "COUNTY": "Franklin", "STATE": "WA", "ZIP_CODE": "99301", "LNG": -119.0954746, "LAT": 46.2349271 }, "geometry": { "type": "Point", "coordinates": [ -119.0954746, 46.2349271 ] } },
{ "type": "Feature", "properties": { "NAME": "Columbia Basin Hospital", "HOSPITAL_TYPE": "Critical Access Hospitals", "OWNERSHIP_TYPE": "Government - Hospital District or Authority", "ADDRESS": "200 Nat Washington Way", "CITY": "Ephrata", "COUNTY": "Grant", "STATE": "WA", "ZIP_CODE": "98823", "LNG": -119.5464905, "LAT": 47.3142973 }, "geometry": { "type": "Point", "coordinates": [ -119.5464905, 47.3142973 ] } },
{ "type": "Feature", "properties": { "NAME": "Capital Medical Center", "HOSPITAL_TYPE": "Acute Care Hospitals", "OWNERSHIP_TYPE": "Voluntary non-profit - Private", "ADDRESS": "3900 Capital Mall Dr SW", "CITY": "Olympia", "COUNTY": "Thurston", "STATE": "WA", "ZIP_CODE": "98502", "LNG": -122.9517829, "LAT": 47.0429139 }, "geometry": { "type": "Point", "coordinates": [ -122.9517829, 47.0429139 ] } },
{ "type": "Feature", "properties": { "NAME": "Evergreenhealth Medical Center", "HOSPITAL_TYPE": "Acute Care Hospitals", "OWNERSHIP_TYPE": "Government - Hospital District or Authority", "ADDRESS": "12040 NE 128th St", "CITY": "Kirkland", "COUNTY": "King", "STATE": "WA", "ZIP_CODE": "98034", "LNG": -122.1788405, "LAT": 47.7154327 }, "geometry": { "type": "Point", "coordinates": [ -122.1788405, 47.7154327 ] } },
{ "type": "Feature", "properties": { "NAME": "Othello Community Hospital", "HOSPITAL_TYPE": "Critical Access Hospitals", "OWNERSHIP_TYPE": "Government - Hospital District or Authority", "ADDRESS": "315 N 14th Ave", "CITY": "Othello", "COUNTY": "Adams", "STATE": "WA", "ZIP_CODE": "99344", "LNG": -119.1551479, "LAT": 46.8297573 }, "geometry": { "type": "Point", "coordinates": [ -119.1551479, 46.8297573 ] } },
{ "type": "Feature", "properties": { "NAME": "Sunnyside Community Hospital", "HOSPITAL_TYPE": "Critical Access Hospitals", "OWNERSHIP_TYPE": "Voluntary non-profit - Private", "ADDRESS": "1016 Tacoma Ave", "CITY": "Sunnyside", "COUNTY": "Yakima", "STATE": "WA", "ZIP_CODE": "98944", "LNG": -120.006972, "LAT": 46.3224618 }, "geometry": { "type": "Point", "coordinates": [ -120.006972, 46.3224618 ] } },
{ "type": "Feature", "properties": { "NAME": "Kadlec Regional Medical Center", "HOSPITAL_TYPE": "Acute Care Hospitals", "OWNERSHIP_TYPE": "Voluntary non-profit - Private", "ADDRESS": "888 Swift Blvd", "CITY": "Richland", "COUNTY": "Benton", "STATE": "WA", "ZIP_CODE": "99352", "LNG": -119.2826107, "LAT": 46.2810929 }, "geometry": { "type": "Point", "coordinates": [ -119.2826107, 46.2810929 ] } },
{ "type": "Feature", "properties": { "NAME": "Kennewick General Hospital", "HOSPITAL_TYPE": "Acute Care Hospitals", "OWNERSHIP_TYPE": "Government - Hospital District or Authority", "ADDRESS": "900 S Auburn St", "CITY": "Kennewick", "COUNTY": "Benton", "STATE": "WA", "ZIP_CODE": "99336", "LNG": -119.119327, "LAT": 46.199093 }, "geometry": { "type": "Point", "coordinates": [ -119.119327, 46.199093 ] } },
{ "type": "Feature", "properties": { "NAME": "Dayton General Hospital", "HOSPITAL_TYPE": "Critical Access Hospitals", "OWNERSHIP_TYPE": "Government - Hospital District or Authority", "ADDRESS": "1012 S 3rd St", "CITY": "Dayton", "COUNTY": "Columbia", "STATE": "WA", "ZIP_CODE": "99328", "LNG": -117.9701599, "LAT": 46.311967 }, "geometry": { "type": "Point", "coordinates": [ -117.9701599, 46.311967 ] } },
{ "type": "Feature", "properties": { "NAME": "Summit Pacific Medical Center-Swing Bed Unit", "HOSPITAL_TYPE": "Critical Access Hospitals", "OWNERSHIP_TYPE": "Government - Hospital District or Authority", "ADDRESS": "600 E Main St", "CITY": "Elma", "COUNTY": "Grays Harbor", "STATE": "WA", "ZIP_CODE": "98541", "LNG": -123.3919449, "LAT": 47.006903 }, "geometry": { "type": "Point", "coordinates": [ -123.3919449, 47.006903 ] } },
{ "type": "Feature", "properties": { "NAME": "Providence St Mary Medical Center", "HOSPITAL_TYPE": "Acute Care Hospitals", "OWNERSHIP_TYPE": "Voluntary non-profit - Private", "ADDRESS": "401 W Poplar St", "CITY": "Walla Walla", "COUNTY": "Walla Walla", "STATE": "WA", "ZIP_CODE": "99362", "LNG": -118.3431332, "LAT": 46.0619651 }, "geometry": { "type": "Point", "coordinates": [ -118.3431332, 46.0619651 ] } },
{ "type": "Feature", "properties": { "NAME": "Whidbeyhealth Medical Center", "HOSPITAL_TYPE": "Critical Access Hospitals", "OWNERSHIP_TYPE": "Government - Hospital District or Authority", "ADDRESS": "101 N Main St", "CITY": "Coupeville", "COUNTY": "Island", "STATE": "WA", "ZIP_CODE": "98239", "LNG": -122.6843475, "LAT": 48.2138139 }, "geometry": { "type": "Point", "coordinates": [ -122.6843475, 48.2138139 ] } },
{ "type": "Feature", "properties": { "NAME": "St Clare Hospital", "HOSPITAL_TYPE": "Acute Care Hospitals", "OWNERSHIP_TYPE": "Voluntary non-profit - Church", "ADDRESS": "11315 Bridgeport Way SW", "CITY": "Lakewood", "COUNTY": "Pierce", "STATE": "WA", "ZIP_CODE": "98499", "LNG": -122.5025425, "LAT": 47.1549409 }, "geometry": { "type": "Point", "coordinates": [ -122.5025425, 47.1549409 ] } },
{ "type": "Feature", "properties": { "NAME": "Confluence Health- Wenatchee Valley Hosp & Clinics", "HOSPITAL_TYPE": "Acute Care Hospitals", "OWNERSHIP_TYPE": "Voluntary non-profit - Private", "ADDRESS": "820 N Chelan Ave", "CITY": "Wenatchee", "COUNTY": "Chelan", "STATE": "WA", "ZIP_CODE": "98801", "LNG": -120.3231961, "LAT": 47.4336603 }, "geometry": { "type": "Point", "coordinates": [ -120.3231961, 47.4336603 ] } },
{ "type": "Feature", "properties": { "NAME": "Evergreen Health Monroe", "HOSPITAL_TYPE": "Acute Care Hospitals", "OWNERSHIP_TYPE": "Government - Hospital District or Authority", "ADDRESS": "14701 179th Ave SE", "CITY": "Monroe", "COUNTY": "Snohomish", "STATE": "WA", "ZIP_CODE": "98272", "LNG": -121.9896179, "LAT": 47.8640585 }, "geometry": { "type": "Point", "coordinates": [ -121.9896179, 47.8640585 ] } },
{ "type": "Feature", "properties": { "NAME": "Toppenish Community Hospital", "HOSPITAL_TYPE": "Acute Care Hospitals", "OWNERSHIP_TYPE": "Proprietary", "ADDRESS": "502 W 4th Ave", "CITY": "Toppenish", "COUNTY": "Yakima", "STATE": "WA", "ZIP_CODE": "98948", "LNG": -120.3159184, "LAT": 46.3713507 }, "geometry": { "type": "Point", "coordinates": [ -120.3159184, 46.3713507 ] } },
{ "type": "Feature", "properties": { "NAME": "Yakima Valley Memorial Hospital", "HOSPITAL_TYPE": "Acute Care Hospitals", "OWNERSHIP_TYPE": "Voluntary non-profit - Private", "ADDRESS": "2811 Tieton Dr", "CITY": "Yakima", "COUNTY": "Yakima", "STATE": "WA", "ZIP_CODE": "98902", "LNG": -120.5476355, "LAT": 46.5937545 }, "geometry": { "type": "Point", "coordinates": [ -120.5476355, 46.5937545 ] } },
{ "type": "Feature", "properties": { "NAME": "Harrison Memorial Hospital", "HOSPITAL_TYPE": "Acute Care Hospitals", "OWNERSHIP_TYPE": "Voluntary non-profit - Private", "ADDRESS": "2520 Cherry Ave", "CITY": "Bremerton", "COUNTY": "Kitsap", "STATE": "WA", "ZIP_CODE": "98310", "LNG": -122.625149, "LAT": 47.58314 }, "geometry": { "type": "Point", "coordinates": [ -122.625149, 47.58314 ] } },
{ "type": "Feature", "properties": { "NAME": "Ferry County Memorial Hospital", "HOSPITAL_TYPE": "Critical Access Hospitals", "OWNERSHIP_TYPE": "Government - Hospital District or Authority", "ADDRESS": "36 N Klondike Rd", "CITY": "Republic", "COUNTY": "Ferry", "STATE": "WA", "ZIP_CODE": "99166", "LNG": -118.731416, "LAT": 48.653054 }, "geometry": { "type": "Point", "coordinates": [ -118.731416, 48.653054 ] } },
{ "type": "Feature", "properties": { "NAME": "Mid Valley Hospital", "HOSPITAL_TYPE": "Critical Access Hospitals", "OWNERSHIP_TYPE": "Government - Hospital District or Authority", "ADDRESS": "810 Jasmine St", "CITY": "Omak", "COUNTY": "Okanogan", "STATE": "WA", "ZIP_CODE": "98841", "LNG": -119.5462401, "LAT": 48.396993 }, "geometry": { "type": "Point", "coordinates": [ -119.5462401, 48.396993 ] } },
{ "type": "Feature", "properties": { "NAME": "Seattle Children's Hospital", "HOSPITAL_TYPE": "Childrens", "OWNERSHIP_TYPE": "Voluntary non-profit - Private", "ADDRESS": "4800 Sand Point Way NE", "CITY": "Seattle", "COUNTY": "King", "STATE": "WA", "ZIP_CODE": "98105", "LNG": -122.2805384, "LAT": 47.6622259 }, "geometry": { "type": "Point", "coordinates": [ -122.2805384, 47.6622259 ] } },
{ "type": "Feature", "properties": { "NAME": "Shriners Hospital For Children", "HOSPITAL_TYPE": "Childrens", "OWNERSHIP_TYPE": "Voluntary non-profit - Private", "ADDRESS": "911 W 5th Ave", "CITY": "Spokane", "COUNTY": "Spokane", "STATE": "WA", "ZIP_CODE": "99204", "LNG": -117.425821, "LAT": 47.650935 }, "geometry": { "type": "Point", "coordinates": [ -117.425821, 47.650935 ] } },
{ "type": "Feature", "properties": { "NAME": "St Joseph Medical Center", "HOSPITAL_TYPE": "Acute Care Hospitals", "OWNERSHIP_TYPE": "Voluntary non-profit - Church", "ADDRESS": "1717 S J St", "CITY": "Tacoma", "COUNTY": "Pierce", "STATE": "WA", "ZIP_CODE": "98405", "LNG": -122.4483725, "LAT": 47.2458759 }, "geometry": { "type": "Point", "coordinates": [ -122.4483725, 47.2458759 ] } },
{ "type": "Feature", "properties": { "NAME": "Ocean Beach Hospital", "HOSPITAL_TYPE": "Critical Access Hospitals", "OWNERSHIP_TYPE": "Government - Hospital District or Authority", "ADDRESS": "174 1st Ave N", "CITY": "Ilwaco", "COUNTY": "Pacific", "STATE": "WA", "ZIP_CODE": "98624", "LNG": -124.0425711, "LAT": 46.3116775 }, "geometry": { "type": "Point", "coordinates": [ -124.0425711, 46.3116775 ] } },
{ "type": "Feature", "properties": { "NAME": "Providence St Peter Hospital", "HOSPITAL_TYPE": "Acute Care Hospitals", "OWNERSHIP_TYPE": "Voluntary non-profit - Private", "ADDRESS": "413 Lilly Rd NE", "CITY": "Olympia", "COUNTY": "Thurston", "STATE": "WA", "ZIP_CODE": "98506", "LNG": -122.8467837, "LAT": 47.0524811 }, "geometry": { "type": "Point", "coordinates": [ -122.8467837, 47.0524811 ] } },
{ "type": "Feature", "properties": { "NAME": "Providence Centralia Hospital", "HOSPITAL_TYPE": "Acute Care Hospitals", "OWNERSHIP_TYPE": "Voluntary non-profit - Other", "ADDRESS": "914 S Scheuber Rd", "CITY": "Centralia", "COUNTY": "Lewis", "STATE": "WA", "ZIP_CODE": "98531", "LNG": -122.9860309, "LAT": 46.7118986 }, "geometry": { "type": "Point", "coordinates": [ -122.9860309, 46.7118986 ] } },
{ "type": "Feature", "properties": { "NAME": "Swedish Medical Center", "HOSPITAL_TYPE": "Acute Care Hospitals", "OWNERSHIP_TYPE": "Voluntary non-profit - Private", "ADDRESS": "747 Broadway", "CITY": "Seattle", "COUNTY": "King", "STATE": "WA", "ZIP_CODE": "98122", "LNG": -122.3220427, "LAT": 47.6088943 }, "geometry": { "type": "Point", "coordinates": [ -122.3220427, 47.6088943 ] } },
{ "type": "Feature", "properties": { "NAME": "Swedish Edmonds Hospital", "HOSPITAL_TYPE": "Acute Care Hospitals", "OWNERSHIP_TYPE": "Voluntary non-profit - Private", "ADDRESS": "21601 76th Ave W", "CITY": "Edmonds", "COUNTY": "Snohomish", "STATE": "WA", "ZIP_CODE": "98026", "LNG": -122.334539, "LAT": 47.8033101 }, "geometry": { "type": "Point", "coordinates": [ -122.334539, 47.8033101 ] } },
{ "type": "Feature", "properties": { "NAME": "Island Hospital", "HOSPITAL_TYPE": "Acute Care Hospitals", "OWNERSHIP_TYPE": "Government - Hospital District or Authority", "ADDRESS": "1211 24th St", "CITY": "Anacortes", "COUNTY": "Skagit", "STATE": "WA", "ZIP_CODE": "98221", "LNG": -122.6150144, "LAT": 48.5020509 }, "geometry": { "type": "Point", "coordinates": [ -122.6150144, 48.5020509 ] } },
{ "type": "Feature", "properties": { "NAME": "Quincy Valley Hospital", "HOSPITAL_TYPE": "Critical Access Hospitals", "OWNERSHIP_TYPE": "Government - Hospital District or Authority", "ADDRESS": "908 10th Ave SW", "CITY": "Quincy", "COUNTY": "Grant", "STATE": "WA", "ZIP_CODE": "98848", "LNG": -119.8682047, "LAT": 47.2311782 }, "geometry": { "type": "Point", "coordinates": [ -119.8682047, 47.2311782 ] } },
{ "type": "Feature", "properties": { "NAME": "Providence Holy Family Hospital", "HOSPITAL_TYPE": "Acute Care Hospitals", "OWNERSHIP_TYPE": "Voluntary non-profit - Church", "ADDRESS": "5633 N Lidgerwood St", "CITY": "Spokane", "COUNTY": "Spokane", "STATE": "WA", "ZIP_CODE": "99208", "LNG": -117.4071302, "LAT": 47.7098478 }, "geometry": { "type": "Point", "coordinates": [ -117.4071302, 47.7098478 ] } },
{ "type": "Feature", "properties": { "NAME": "Tri-State Memorial Hospital", "HOSPITAL_TYPE": "Critical Access Hospitals", "OWNERSHIP_TYPE": "Voluntary non-profit - Private", "ADDRESS": "1254 Highland Ave", "CITY": "Clarkston", "COUNTY": "Asotin", "STATE": "WA", "ZIP_CODE": "99403", "LNG": -117.05661, "LAT": 46.4036522 }, "geometry": { "type": "Point", "coordinates": [ -117.05661, 46.4036522 ] } },
{ "type": "Feature", "properties": { "NAME": "East Adams Rural Hospital", "HOSPITAL_TYPE": "Critical Access Hospitals", "OWNERSHIP_TYPE": "Government - Hospital District or Authority", "ADDRESS": "903 S Adams St", "CITY": "Ritzville", "COUNTY": "Adams", "STATE": "WA", "ZIP_CODE": "99169", "LNG": -118.3721239, "LAT": 47.1210283 }, "geometry": { "type": "Point", "coordinates": [ -118.3721239, 47.1210283 ] } },
{ "type": "Feature", "properties": { "NAME": "Providence Regional Medical Center Everett", "HOSPITAL_TYPE": "Acute Care Hospitals", "OWNERSHIP_TYPE": "Voluntary non-profit - Church", "ADDRESS": "916 Pacific Ave", "CITY": "Everett", "COUNTY": "Snohomish", "STATE": "WA", "ZIP_CODE": "98201", "LNG": -122.2170798, "LAT": 47.9756524 }, "geometry": { "type": "Point", "coordinates": [ -122.2170798, 47.9756524 ] } },
{ "type": "Feature", "properties": { "NAME": "Peachealth St John Medical Center", "HOSPITAL_TYPE": "Acute Care Hospitals", "OWNERSHIP_TYPE": "Voluntary non-profit - Church", "ADDRESS": "1615 Delaware St", "CITY": "Longview", "COUNTY": "Cowlitz", "STATE": "WA", "ZIP_CODE": "98632", "LNG": -122.9412013, "LAT": 46.1301827 }, "geometry": { "type": "Point", "coordinates": [ -122.9412013, 46.1301827 ] } },
{ "type": "Feature", "properties": { "NAME": "Yakima Regional Medical And Cardiac Center", "HOSPITAL_TYPE": "Acute Care Hospitals", "OWNERSHIP_TYPE": "Proprietary", "ADDRESS": "110 S 9th Ave", "CITY": "Yakima", "COUNTY": "Yakima", "STATE": "WA", "ZIP_CODE": "98902", "LNG": -120.5213088, "LAT": 46.5966275 }, "geometry": { "type": "Point", "coordinates": [ -120.5213088, 46.5966275 ] } },
{ "type": "Feature", "properties": { "NAME": "Highline Medical Center", "HOSPITAL_TYPE": "Acute Care Hospitals", "OWNERSHIP_TYPE": "Voluntary non-profit - Private", "ADDRESS": "16251 Sylvester Rd SW", "CITY": "Burien", "COUNTY": "King", "STATE": "WA", "ZIP_CODE": "98166", "LNG": -122.343248, "LAT": 47.457487 }, "geometry": { "type": "Point", "coordinates": [ -122.343248, 47.457487 ] } },
{ "type": "Feature", "properties": { "NAME": "Providence Mount Carmel Hospital", "HOSPITAL_TYPE": "Critical Access Hospitals", "OWNERSHIP_TYPE": "Voluntary non-profit - Church", "ADDRESS": "982 E Columbia Ave", "CITY": "Colville", "COUNTY": "Stevens", "STATE": "WA", "ZIP_CODE": "99114", "LNG": -117.893144, "LAT": 48.540797 }, "geometry": { "type": "Point", "coordinates": [ -117.893144, 48.540797 ] } },
{ "type": "Feature", "properties": { "NAME": "Olympic Medical Center", "HOSPITAL_TYPE": "Acute Care Hospitals", "OWNERSHIP_TYPE": "Government - Local", "ADDRESS": "939 Caroline St", "CITY": "Port Angeles", "COUNTY": "Clallam", "STATE": "WA", "ZIP_CODE": "98362", "LNG": -123.4147562, "LAT": 48.1154173 }, "geometry": { "type": "Point", "coordinates": [ -123.4147562, 48.1154173 ] } },
{ "type": "Feature", "properties": { "NAME": "Samaritan Hospital", "HOSPITAL_TYPE": "Acute Care Hospitals", "OWNERSHIP_TYPE": "Government - Hospital District or Authority", "ADDRESS": "801 E Wheeler Rd", "CITY": "Moses Lake", "COUNTY": "Grant", "STATE": "WA", "ZIP_CODE": "98837", "LNG": -119.2652935, "LAT": 47.1282588 }, "geometry": { "type": "Point", "coordinates": [ -119.2652935, 47.1282588 ] } },
{ "type": "Feature", "properties": { "NAME": "Central Washington Hospital", "HOSPITAL_TYPE": "Acute Care Hospitals", "OWNERSHIP_TYPE": "Voluntary non-profit - Private", "ADDRESS": "1201 S Miller St", "CITY": "Wenatchee", "COUNTY": "Chelan", "STATE": "WA", "ZIP_CODE": "98801", "LNG": -120.320806, "LAT": 47.4065623 }, "geometry": { "type": "Point", "coordinates": [ -120.320806, 47.4065623 ] } },
{ "type": "Feature", "properties": { "NAME": "Multicare Valley Hospital", "HOSPITAL_TYPE": "Acute Care Hospitals", "OWNERSHIP_TYPE": "Proprietary", "ADDRESS": "12606 E Mission Ave", "CITY": "Spokane Valley", "COUNTY": "Spokane", "STATE": "WA", "ZIP_CODE": "99216", "LNG": -117.235524, "LAT": 47.670756 }, "geometry": { "type": "Point", "coordinates": [ -117.235524, 47.670756 ] } },
{ "type": "Feature", "properties": { "NAME": "Jefferson Healthcare", "HOSPITAL_TYPE": "Critical Access Hospitals", "OWNERSHIP_TYPE": "Government - Hospital District or Authority", "ADDRESS": "834 Sheridan St", "CITY": "Port Townsend", "COUNTY": "Jefferson", "STATE": "WA", "ZIP_CODE": "98368", "LNG": -122.7893461, "LAT": 48.1058418 }, "geometry": { "type": "Point", "coordinates": [ -122.7893461, 48.1058418 ] } },
{ "type": "Feature", "properties": { "NAME": "Swedish Medical Center \/ Cherry Hill", "HOSPITAL_TYPE": "Acute Care Hospitals", "OWNERSHIP_TYPE": "Voluntary non-profit - Church", "ADDRESS": "500 17th Ave Suite 100", "CITY": "Seattle", "COUNTY": "King", "STATE": "WA", "ZIP_CODE": "98122", "LNG": -122.3107016, "LAT": 47.606482 }, "geometry": { "type": "Point", "coordinates": [ -122.3107016, 47.606482 ] } },
{ "type": "Feature", "properties": { "NAME": "St Joseph Medical Center", "HOSPITAL_TYPE": "Acute Care Hospitals", "OWNERSHIP_TYPE": "Voluntary non-profit - Other", "ADDRESS": "2901 Squalicum Pkwy", "CITY": "Bellingham", "COUNTY": "Whatcom", "STATE": "WA", "ZIP_CODE": "98225", "LNG": -122.4733425, "LAT": 48.7732176 }, "geometry": { "type": "Point", "coordinates": [ -122.4733425, 48.7732176 ] } },
{ "type": "Feature", "properties": { "NAME": "Harborview Medical Center", "HOSPITAL_TYPE": "Acute Care Hospitals", "OWNERSHIP_TYPE": "Government - Local", "ADDRESS": "325 9th Ave", "CITY": "Seattle", "COUNTY": "King", "STATE": "WA", "ZIP_CODE": "98104", "LNG": -122.3235411, "LAT": 47.6043796 }, "geometry": { "type": "Point", "coordinates": [ -122.3235411, 47.6043796 ] } },
{ "type": "Feature", "properties": { "NAME": "Walla Walla General Hospital", "HOSPITAL_TYPE": "Acute Care Hospitals", "OWNERSHIP_TYPE": "Voluntary non-profit - Church", "ADDRESS": "1025 S 2nd Ave", "CITY": "Walla Walla", "COUNTY": "Walla Walla", "STATE": "WA", "ZIP_CODE": "99362", "LNG": -118.3293879, "LAT": 46.0551307 }, "geometry": { "type": "Point", "coordinates": [ -118.3293879, 46.0551307 ] } },
{ "type": "Feature", "properties": { "NAME": "Klickitat Valley Hospital", "HOSPITAL_TYPE": "Critical Access Hospitals", "OWNERSHIP_TYPE": "Government - Hospital District or Authority", "ADDRESS": "310 S Roosevelt Ave", "CITY": "Goldendale", "COUNTY": "Klickitat", "STATE": "WA", "ZIP_CODE": "98620", "LNG": -120.8107845, "LAT": 45.8199933 }, "geometry": { "type": "Point", "coordinates": [ -120.8107845, 45.8199933 ] } },
{ "type": "Feature", "properties": { "NAME": "Snoqualmie Valley Hospital", "HOSPITAL_TYPE": "Critical Access Hospitals", "OWNERSHIP_TYPE": "Government - Hospital District or Authority", "ADDRESS": "9801 Frontier Ave SE", "CITY": "Snoqualmie", "COUNTY": "King", "STATE": "WA", "ZIP_CODE": "98065", "LNG": -121.8857165, "LAT": 47.5127466 }, "geometry": { "type": "Point", "coordinates": [ -121.8857165, 47.5127466 ] } },
{ "type": "Feature", "properties": { "NAME": "Morton General Hospital", "HOSPITAL_TYPE": "Critical Access Hospitals", "OWNERSHIP_TYPE": "Government - Local", "ADDRESS": "521 Adams Ave", "CITY": "Morton", "COUNTY": "Lewis", "STATE": "WA", "ZIP_CODE": "98356", "LNG": -122.2799987, "LAT": 46.5554332 }, "geometry": { "type": "Point", "coordinates": [ -122.2799987, 46.5554332 ] } },
{ "type": "Feature", "properties": { "NAME": "Cascade Valley Hospital", "HOSPITAL_TYPE": "Acute Care Hospitals", "OWNERSHIP_TYPE": "Government - Hospital District or Authority", "ADDRESS": "330 S Stillaguamish Ave", "CITY": "Arlington", "COUNTY": "Snohomish", "STATE": "WA", "ZIP_CODE": "98223", "LNG": -122.1183507, "LAT": 48.1887877 }, "geometry": { "type": "Point", "coordinates": [ -122.1183507, 48.1887877 ] } },
{ "type": "Feature", "properties": { "NAME": "Mason General Hospital & Family Of Clinics", "HOSPITAL_TYPE": "Critical Access Hospitals", "OWNERSHIP_TYPE": "Government - Hospital District or Authority", "ADDRESS": "901 Mountain View Dr", "CITY": "Shelton", "COUNTY": "Mason", "STATE": "WA", "ZIP_CODE": "98584", "LNG": -123.1139636, "LAT": 47.2257605 }, "geometry": { "type": "Point", "coordinates": [ -123.1139636, 47.2257605 ] } },
{ "type": "Feature", "properties": { "NAME": "Legacy Salmon Creek Medical Center", "HOSPITAL_TYPE": "Acute Care Hospitals", "OWNERSHIP_TYPE": "Voluntary non-profit - Private", "ADDRESS": "2211 NE 139th St", "CITY": "Vancouver", "COUNTY": "Clark", "STATE": "WA", "ZIP_CODE": "98686", "LNG": -122.6479792, "LAT": 45.7207142 }, "geometry": { "type": "Point", "coordinates": [ -122.6479792, 45.7207142 ] } },
{ "type": "Feature", "properties": { "NAME": "Valley Medical Center", "HOSPITAL_TYPE": "Acute Care Hospitals", "OWNERSHIP_TYPE": "Government - Hospital District or Authority", "ADDRESS": "400 S 43rd St", "CITY": "Renton", "COUNTY": "King", "STATE": "WA", "ZIP_CODE": "98055", "LNG": -122.2144781, "LAT": 47.4424121 }, "geometry": { "type": "Point", "coordinates": [ -122.2144781, 47.4424121 ] } },
{ "type": "Feature", "properties": { "NAME": "St Francis Community Hospital", "HOSPITAL_TYPE": "Acute Care Hospitals", "OWNERSHIP_TYPE": "Voluntary non-profit - Church", "ADDRESS": "34515 9th Ave S", "CITY": "Federal Way", "COUNTY": "King", "STATE": "WA", "ZIP_CODE": "98003", "LNG": -122.3265433, "LAT": 47.2926381 }, "geometry": { "type": "Point", "coordinates": [ -122.3265433, 47.2926381 ] } },
{ "type": "Feature", "properties": { "NAME": "Virginia Mason Medical Center", "HOSPITAL_TYPE": "Acute Care Hospitals", "OWNERSHIP_TYPE": "Voluntary non-profit - Private", "ADDRESS": "925 Seneca St", "CITY": "Seattle", "COUNTY": "King", "STATE": "WA", "ZIP_CODE": "98101", "LNG": -122.327633, "LAT": 47.6100079 }, "geometry": { "type": "Point", "coordinates": [ -122.327633, 47.6100079 ] } },
{ "type": "Feature", "properties": { "NAME": "Prosser Memorial Hospital", "HOSPITAL_TYPE": "Critical Access Hospitals", "OWNERSHIP_TYPE": "Government - Hospital District or Authority", "ADDRESS": "723 Memorial St", "CITY": "Prosser", "COUNTY": "Benton", "STATE": "WA", "ZIP_CODE": "99350", "LNG": -119.7640466, "LAT": 46.2080997 }, "geometry": { "type": "Point", "coordinates": [ -119.7640466, 46.2080997 ] } },
{ "type": "Feature", "properties": { "NAME": "Swedish Issaquah", "HOSPITAL_TYPE": "Acute Care Hospitals", "OWNERSHIP_TYPE": "Voluntary non-profit - Private", "ADDRESS": "751 NE Blakely Dr", "CITY": "Issaquah", "COUNTY": "King", "STATE": "WA", "ZIP_CODE": "98029", "LNG": -122.0218919, "LAT": 47.5357009 }, "geometry": { "type": "Point", "coordinates": [ -122.0218919, 47.5357009 ] } },
{ "type": "Feature", "properties": { "NAME": "Northwest Hospital", "HOSPITAL_TYPE": "Acute Care Hospitals", "OWNERSHIP_TYPE": "Voluntary non-profit - Other", "ADDRESS": "1550 N 115th St", "CITY": "Seattle", "COUNTY": "King", "STATE": "WA", "ZIP_CODE": "98133", "LNG": -122.336878, "LAT": 47.7141785 }, "geometry": { "type": "Point", "coordinates": [ -122.336878, 47.7141785 ] } },
{ "type": "Feature", "properties": { "NAME": "Multicare Auburn Medical Center", "HOSPITAL_TYPE": "Acute Care Hospitals", "OWNERSHIP_TYPE": "Voluntary non-profit - Private", "ADDRESS": "202 N Division St", "CITY": "Auburn", "COUNTY": "King", "STATE": "WA", "ZIP_CODE": "98001", "LNG": -122.2293794, "LAT": 47.30921 }, "geometry": { "type": "Point", "coordinates": [ -122.2293794, 47.30921 ] } },
{ "type": "Feature", "properties": { "NAME": "Peacehealth Peace Island Medical Center", "HOSPITAL_TYPE": "Critical Access Hospitals", "OWNERSHIP_TYPE": "Voluntary non-profit - Private", "ADDRESS": "1117 Spring St", "CITY": "Friday Harbor", "COUNTY": "San Juan", "STATE": "WA", "ZIP_CODE": "98250", "LNG": -123.028881, "LAT": 48.5289333 }, "geometry": { "type": "Point", "coordinates": [ -123.028881, 48.5289333 ] } },
{ "type": "Feature", "properties": { "NAME": "Providence St Joseph Hospital", "HOSPITAL_TYPE": "Critical Access Hospitals", "OWNERSHIP_TYPE": "Voluntary non-profit - Church", "ADDRESS": "500 E Webster Ave", "CITY": "Chewelah", "COUNTY": "Stevens", "STATE": "WA", "ZIP_CODE": "99109", "LNG": -117.7108346, "LAT": 48.2778015 }, "geometry": { "type": "Point", "coordinates": [ -117.7108346, 48.2778015 ] } },
{ "type": "Feature", "properties": { "NAME": "Three Rivers Hospital", "HOSPITAL_TYPE": "Critical Access Hospitals", "OWNERSHIP_TYPE": "Government - Hospital District or Authority", "ADDRESS": "507 Hospital Way", "CITY": "Brewster", "COUNTY": "Okanogan", "STATE": "WA", "ZIP_CODE": "98812", "LNG": -119.7828278, "LAT": 48.106301 }, "geometry": { "type": "Point", "coordinates": [ -119.7828278, 48.106301 ] } },
{ "type": "Feature", "properties": { "NAME": "Group Health Central Hospital", "HOSPITAL_TYPE": "Acute Care Hospitals", "OWNERSHIP_TYPE": "Voluntary non-profit - Other", "ADDRESS": "201 16th Ave E", "CITY": "Seattle", "COUNTY": "King", "STATE": "WA", "ZIP_CODE": "98112", "LNG": -122.3124495, "LAT": 47.6195658 }, "geometry": { "type": "Point", "coordinates": [ -122.3124495, 47.6195658 ] } },
{ "type": "Feature", "properties": { "NAME": "Odessa Memorial Healthcare Center", "HOSPITAL_TYPE": "Critical Access Hospitals", "OWNERSHIP_TYPE": "Government - Hospital District or Authority", "ADDRESS": "502 Amende St", "CITY": "Odessa", "COUNTY": "Lincoln", "STATE": "WA", "ZIP_CODE": "99159", "LNG": -118.6822877, "LAT": 47.3314125 }, "geometry": { "type": "Point", "coordinates": [ -118.6822877, 47.3314125 ] } },
{ "type": "Feature", "properties": { "NAME": "St Anthony Hospital", "HOSPITAL_TYPE": "Acute Care Hospitals", "OWNERSHIP_TYPE": "Voluntary non-profit - Church", "ADDRESS": "11567 Canterwood Blvd NW", "CITY": "Gig Harbor", "COUNTY": "Pierce", "STATE": "WA", "ZIP_CODE": "98332", "LNG": -122.613414, "LAT": 47.363616 }, "geometry": { "type": "Point", "coordinates": [ -122.613414, 47.363616 ] } },
{ "type": "Feature", "properties": { "NAME": "Whitman Hospital And Medical Center", "HOSPITAL_TYPE": "Critical Access Hospitals", "OWNERSHIP_TYPE": "Government - Hospital District or Authority", "ADDRESS": "1200 W Fairview St", "CITY": "Colfax", "COUNTY": "Whitman", "STATE": "WA", "ZIP_CODE": "99111", "LNG": -117.3756605, "LAT": 46.8689006 }, "geometry": { "type": "Point", "coordinates": [ -117.3756605, 46.8689006 ] } },
{ "type": "Feature", "properties": { "NAME": "Garfield County Memorial Hospital", "HOSPITAL_TYPE": "Critical Access Hospitals", "OWNERSHIP_TYPE": "Government - Hospital District or Authority", "ADDRESS": "66 6th St", "CITY": "Pomeroy", "COUNTY": "Garfield", "STATE": "WA", "ZIP_CODE": "99347", "LNG": -117.6025966, "LAT": 46.475492 }, "geometry": { "type": "Point", "coordinates": [ -117.6025966, 46.475492 ] } },
{ "type": "Feature", "properties": { "NAME": "St Elizabeth Hospital", "HOSPITAL_TYPE": "Critical Access Hospitals", "OWNERSHIP_TYPE": "Voluntary non-profit - Private", "ADDRESS": "1455 Battersby Ave", "CITY": "Enumclaw", "COUNTY": "King", "STATE": "WA", "ZIP_CODE": "98022", "LNG": -121.9877559, "LAT": 47.209166 }, "geometry": { "type": "Point", "coordinates": [ -121.9877559, 47.209166 ] } },
{ "type": "Feature", "properties": { "NAME": "Skyline Hospital", "HOSPITAL_TYPE": "Critical Access Hospitals", "OWNERSHIP_TYPE": "Government - Hospital District or Authority", "ADDRESS": "211 NE Skyline Dr", "CITY": "White Salmon", "COUNTY": "Klickitat", "STATE": "WA", "ZIP_CODE": "98672", "LNG": -121.470793, "LAT": 45.722474 }, "geometry": { "type": "Point", "coordinates": [ -121.470793, 45.722474 ] } },
{ "type": "Feature", "properties": { "NAME": "University Of Washington Medical Ctr", "HOSPITAL_TYPE": "Acute Care Hospitals", "OWNERSHIP_TYPE": "Government - State", "ADDRESS": "1959 NE Pacific St", "CITY": "Seattle", "COUNTY": "King", "STATE": "WA", "ZIP_CODE": "98195", "LNG": -122.3066571, "LAT": 47.6493147 }, "geometry": { "type": "Point", "coordinates": [ -122.3066571, 47.6493147 ] } },
{ "type": "Feature", "properties": { "NAME": "North Valley Hospital", "HOSPITAL_TYPE": "Critical Access Hospitals", "OWNERSHIP_TYPE": "Government - Local", "ADDRESS": "203 S Western Ave", "CITY": "Tonasket", "COUNTY": "Okanogan", "STATE": "WA", "ZIP_CODE": "98855", "LNG": -119.4391826, "LAT": 48.7065956 }, "geometry": { "type": "Point", "coordinates": [ -119.4391826, 48.7065956 ] } },
{ "type": "Feature", "properties": { "NAME": "Pullman Regional Hospital", "HOSPITAL_TYPE": "Critical Access Hospitals", "OWNERSHIP_TYPE": "Government - Hospital District or Authority", "ADDRESS": "835 SE Bishop Blvd", "CITY": "Pullman", "COUNTY": "Whitman", "STATE": "WA", "ZIP_CODE": "99163", "LNG": -117.1694002, "LAT": 46.7126293 }, "geometry": { "type": "Point", "coordinates": [ -117.1694002, 46.7126293 ] } },
{ "type": "Feature", "properties": { "NAME": "Multicare Good Samaritan Hospital", "HOSPITAL_TYPE": "Acute Care Hospitals", "OWNERSHIP_TYPE": "Voluntary non-profit - Private", "ADDRESS": "401 15th Ave SE", "CITY": "Puyallup", "COUNTY": "Pierce", "STATE": "WA", "ZIP_CODE": "98372", "LNG": -122.2890123, "LAT": 47.1788401 }, "geometry": { "type": "Point", "coordinates": [ -122.2890123, 47.1788401 ] } },
{ "type": "Feature", "properties": { "NAME": "Willapa Harbor Hospital", "HOSPITAL_TYPE": "Critical Access Hospitals", "OWNERSHIP_TYPE": "Government - Hospital District or Authority", "ADDRESS": "800 Alder St", "CITY": "South Bend", "COUNTY": "Pacific", "STATE": "WA", "ZIP_CODE": "98586", "LNG": -123.8122058, "LAT": 46.6627665 }, "geometry": { "type": "Point", "coordinates": [ -123.8122058, 46.6627665 ] } },
{ "type": "Feature", "properties": { "NAME": "Newport Community Hospital", "HOSPITAL_TYPE": "Critical Access Hospitals", "OWNERSHIP_TYPE": "Government - Hospital District or Authority", "ADDRESS": "714 Pine St Bldg. C", "CITY": "Newport", "COUNTY": "Pend Oreille", "STATE": "WA", "ZIP_CODE": "99156", "LNG": -117.0502306, "LAT": 48.182652 }, "geometry": { "type": "Point", "coordinates": [ -117.0502306, 48.182652 ] } },
{ "type": "Feature", "properties": { "NAME": "Grays Harbor Community Hospital", "HOSPITAL_TYPE": "Acute Care Hospitals", "OWNERSHIP_TYPE": "Voluntary non-profit - Private", "ADDRESS": "915 Anderson Dr", "CITY": "Aberdeen", "COUNTY": "Grays Harbor", "STATE": "WA", "ZIP_CODE": "98520", "LNG": -123.8471278, "LAT": 46.9792513 }, "geometry": { "type": "Point", "coordinates": [ -123.8471278, 46.9792513 ] } },
{ "type": "Feature", "properties": { "NAME": "Peacehealth Southwest Medical Center", "HOSPITAL_TYPE": "Acute Care Hospitals", "OWNERSHIP_TYPE": "Voluntary non-profit - Private", "ADDRESS": "400 NE Mother Joseph Pl", "CITY": "Vancouver", "COUNTY": "Clark", "STATE": "WA", "ZIP_CODE": "98664", "LNG": -122.5811134, "LAT": 45.6242077 }, "geometry": { "type": "Point", "coordinates": [ -122.5811134, 45.6242077 ] } },
{ "type": "Feature", "properties": { "NAME": "Skagit Valley Hospital", "HOSPITAL_TYPE": "Acute Care Hospitals", "OWNERSHIP_TYPE": "Government - Hospital District or Authority", "ADDRESS": "300 Hospital Parkway", "CITY": "Mt Vernon", "COUNTY": "Skagit", "STATE": "WA", "ZIP_CODE": "98274", "LNG": -122.3244085, "LAT": 48.4192785 }, "geometry": { "type": "Point", "coordinates": [ -122.3244085, 48.4192785 ] } },
{ "type": "Feature", "properties": { "NAME": "Coulee Medical Center", "HOSPITAL_TYPE": "Critical Access Hospitals", "OWNERSHIP_TYPE": "Government - Hospital District or Authority", "ADDRESS": "411 Fortuyn Rd", "CITY": "Grand Coulee", "COUNTY": "Grant", "STATE": "WA", "ZIP_CODE": "99133", "LNG": -119.00822, "LAT": 47.94223 }, "geometry": { "type": "Point", "coordinates": [ -119.00822, 47.94223 ] } },
{ "type": "Feature", "properties": { "NAME": "Cascade Medical Center", "HOSPITAL_TYPE": "Critical Access Hospitals", "OWNERSHIP_TYPE": "Government - Hospital District or Authority", "ADDRESS": "817 Commercial St", "CITY": "Leavenworth", "COUNTY": "Chelan", "STATE": "WA", "ZIP_CODE": "98826", "LNG": -120.660881, "LAT": 47.5943609 }, "geometry": { "type": "Point", "coordinates": [ -120.660881, 47.5943609 ] } },
{ "type": "Feature", "properties": { "NAME": "Providence Sacred Heart Medical Center", "HOSPITAL_TYPE": "Acute Care Hospitals", "OWNERSHIP_TYPE": "Voluntary non-profit - Church", "ADDRESS": "101 W 8th Ave", "CITY": "Spokane", "COUNTY": "Spokane", "STATE": "WA", "ZIP_CODE": "99204", "LNG": -117.4130344, "LAT": 47.6488241 }, "geometry": { "type": "Point", "coordinates": [ -117.4130344, 47.6488241 ] } },
{ "type": "Feature", "properties": { "NAME": "Forks Community Hospital", "HOSPITAL_TYPE": "Critical Access Hospitals", "OWNERSHIP_TYPE": "Government - Hospital District or Authority", "ADDRESS": "530 Bogachiel Way", "CITY": "Forks", "COUNTY": "Clallam", "STATE": "WA", "ZIP_CODE": "98331", "LNG": -124.3928638, "LAT": 47.9460883 }, "geometry": { "type": "Point", "coordinates": [ -124.3928638, 47.9460883 ] } },
{ "type": "Feature", "properties": { "NAME": "Peacehealth United General Medical Center", "HOSPITAL_TYPE": "Critical Access Hospitals", "OWNERSHIP_TYPE": "Government - Hospital District or Authority", "ADDRESS": "2000 Hospital Dr", "CITY": "Sedro-Woolley", "COUNTY": "Skagit", "STATE": "WA", "ZIP_CODE": "98284", "LNG": -122.276253, "LAT": 48.495902 }, "geometry": { "type": "Point", "coordinates": [ -122.276253, 48.495902 ] } },
{ "type": "Feature", "properties": { "NAME": "Kittitas Valley Community Hospital", "HOSPITAL_TYPE": "Critical Access Hospitals", "OWNERSHIP_TYPE": "Government - Hospital District or Authority", "ADDRESS": "603 S Chestnut St", "CITY": "Ellensburg", "COUNTY": "Kittitas", "STATE": "WA", "ZIP_CODE": "98926", "LNG": -120.5378388, "LAT": 46.9871968 }, "geometry": { "type": "Point", "coordinates": [ -120.5378388, 46.9871968 ] } }
]
}
