{
"type": "FeatureCollection",
"name": "wa-higher-ed-providers",
"crs": { "type": "name", "properties": { "name": "urn:ogc:def:crs:OGC:1.3:CRS84" } },
"features": [
{ "type": "Feature", "properties": { "NAME": "Academy of Interactive Entertainment", "STUDENT_POPULATION": 129, "INSTITUTION_TYPE": "Private not-for-profit", "DEGREE_TYPE": "2-year", "CAMPUS_SETTING_TYPE": "City", "CAMPUS_SETTING_SIZE": "Large", "ADDRESS": "305 Harrison St #405", "CITY": "Seattle", "COUNTY": "King", "STATE": "WA", "ZIP_CODE": "98109", "LNG": -122.3504333, "LAT": 47.6207455 }, "geometry": { "type": "Point", "coordinates": [ -122.3504333, 47.6207455 ] } },
{ "type": "Feature", "properties": { "NAME": "Altierus Career College Everett", "STUDENT_POPULATION": 254, "INSTITUTION_TYPE": "Private not-for-profit", "DEGREE_TYPE": "2-year", "CAMPUS_SETTING_TYPE": "City", "CAMPUS_SETTING_SIZE": "Midsize", "ADDRESS": "906 SE Everett Mall Way #600", "CITY": "Everett", "COUNTY": "Snohomish", "STATE": "WA", "ZIP_CODE": "98208", "LNG": -122.2202443, "LAT": 47.9092994 }, "geometry": { "type": "Point", "coordinates": [ -122.2202443, 47.9092994 ] } },
{ "type": "Feature", "properties": { "NAME": "Altierus Career College-Tacoma", "STUDENT_POPULATION": 383, "INSTITUTION_TYPE": "Private not-for-profit", "DEGREE_TYPE": "2-year", "CAMPUS_SETTING_TYPE": "City", "CAMPUS_SETTING_SIZE": "Midsize", "ADDRESS": "2156 Pacific Ave", "CITY": "Tacoma", "COUNTY": "Pierce", "STATE": "WA", "ZIP_CODE": "98402", "LNG": -122.4362625, "LAT": 47.2411626 }, "geometry": { "type": "Point", "coordinates": [ -122.4362625, 47.2411626 ] } },
{ "type": "Feature", "properties": { "NAME": "Antioch University-Seattle", "STUDENT_POPULATION": 568, "INSTITUTION_TYPE": "Private not-for-profit", "DEGREE_TYPE": "4-year", "CAMPUS_SETTING_TYPE": "City", "CAMPUS_SETTING_SIZE": "Large", "ADDRESS": "2326 6th Ave", "CITY": "Seattle", "COUNTY": "King", "STATE": "WA", "ZIP_CODE": "98121", "LNG": -122.3427244, "LAT": 47.6173598 }, "geometry": { "type": "Point", "coordinates": [ -122.3427244, 47.6173598 ] } },
{ "type": "Feature", "properties": { "NAME": "Argosy University-Seattle", "STUDENT_POPULATION": 59, "INSTITUTION_TYPE": "Private for-profit", "DEGREE_TYPE": "4-year", "CAMPUS_SETTING_TYPE": "City", "CAMPUS_SETTING_SIZE": "Large", "ADDRESS": "2601 Elliott Ave", "CITY": "Seattle", "COUNTY": "King", "STATE": "WA", "ZIP_CODE": "98121", "LNG": -122.3532039, "LAT": 47.6145846 }, "geometry": { "type": "Point", "coordinates": [ -122.3532039, 47.6145846 ] } },
{ "type": "Feature", "properties": { "NAME": "Aveda Institute Portland-Vancouver Campus", "STUDENT_POPULATION": 129, "INSTITUTION_TYPE": "Private for-profit", "DEGREE_TYPE": "< 2-year", "CAMPUS_SETTING_TYPE": "City", "CAMPUS_SETTING_SIZE": "Midsize", "ADDRESS": "6615 NE Fourth Plain Blvd", "CITY": "Vancouver", "COUNTY": "Clark", "STATE": "WA", "ZIP_CODE": "98661", "LNG": -122.6038223, "LAT": 45.643743 }, "geometry": { "type": "Point", "coordinates": [ -122.6038223, 45.643743 ] } },
{ "type": "Feature", "properties": { "NAME": "Bastyr University", "STUDENT_POPULATION": 1247, "INSTITUTION_TYPE": "Private not-for-profit", "DEGREE_TYPE": "4-year", "CAMPUS_SETTING_TYPE": "Suburb", "CAMPUS_SETTING_SIZE": "Large", "ADDRESS": "14500 Juanita Dr NE", "CITY": "Kenmore", "COUNTY": "King", "STATE": "WA", "ZIP_CODE": "98028", "LNG": -122.245646, "LAT": 47.7324577 }, "geometry": { "type": "Point", "coordinates": [ -122.245646, 47.7324577 ] } },
{ "type": "Feature", "properties": { "NAME": "Bates Technical College", "STUDENT_POPULATION": 3291, "INSTITUTION_TYPE": "Public", "DEGREE_TYPE": "2-year", "CAMPUS_SETTING_TYPE": "City", "CAMPUS_SETTING_SIZE": "Midsize", "ADDRESS": "1101 S Yakima Ave", "CITY": "Tacoma", "COUNTY": "Pierce", "STATE": "WA", "ZIP_CODE": "98405", "LNG": -122.4468013, "LAT": 47.2519664 }, "geometry": { "type": "Point", "coordinates": [ -122.4468013, 47.2519664 ] } },
{ "type": "Feature", "properties": { "NAME": "Beauty Academy", "STUDENT_POPULATION": 25, "INSTITUTION_TYPE": "Private for-profit", "DEGREE_TYPE": "< 2-year", "CAMPUS_SETTING_TYPE": "City", "CAMPUS_SETTING_SIZE": "Small", "ADDRESS": "208 S Wenatchee Ave", "CITY": "Wenatchee", "COUNTY": "Chelan", "STATE": "WA", "ZIP_CODE": "98801", "LNG": -120.3095591, "LAT": 47.421833 }, "geometry": { "type": "Point", "coordinates": [ -120.3095591, 47.421833 ] } },
{ "type": "Feature", "properties": { "NAME": "Bellevue College", "STUDENT_POPULATION": 13506, "INSTITUTION_TYPE": "Public", "DEGREE_TYPE": "4-year", "CAMPUS_SETTING_TYPE": "City", "CAMPUS_SETTING_SIZE": "Midsize", "ADDRESS": "3000 Landerholm Cir SE", "CITY": "Bellevue", "COUNTY": "King", "STATE": "WA", "ZIP_CODE": "98007", "LNG": -122.1475855, "LAT": 47.5870695 }, "geometry": { "type": "Point", "coordinates": [ -122.1475855, 47.5870695 ] } },
{ "type": "Feature", "properties": { "NAME": "Bellingham Technical College", "STUDENT_POPULATION": 2426, "INSTITUTION_TYPE": "Public", "DEGREE_TYPE": "4-year", "CAMPUS_SETTING_TYPE": "City", "CAMPUS_SETTING_SIZE": "Small", "ADDRESS": "3028 Lindbergh Ave", "CITY": "Bellingham", "COUNTY": "Whatcom", "STATE": "WA", "ZIP_CODE": "98225", "LNG": -122.5124321, "LAT": 48.7658723 }, "geometry": { "type": "Point", "coordinates": [ -122.5124321, 48.7658723 ] } },
{ "type": "Feature", "properties": { "NAME": "Big Bend Community College", "STUDENT_POPULATION": 2193, "INSTITUTION_TYPE": "Public", "DEGREE_TYPE": "2-year", "CAMPUS_SETTING_TYPE": "Town", "CAMPUS_SETTING_SIZE": "Remote", "ADDRESS": "7662 Chanute St NE", "CITY": "Moses Lake", "COUNTY": "Grant", "STATE": "WA", "ZIP_CODE": "98837", "LNG": -119.3249101, "LAT": 47.184109 }, "geometry": { "type": "Point", "coordinates": [ -119.3249101, 47.184109 ] } },
{ "type": "Feature", "properties": { "NAME": "BJ's Beauty & Barber College", "STUDENT_POPULATION": 88, "INSTITUTION_TYPE": "Private for-profit", "DEGREE_TYPE": "2-year", "CAMPUS_SETTING_TYPE": "City", "CAMPUS_SETTING_SIZE": "Midsize", "ADDRESS": "5239 S Tacoma Way", "CITY": "Tacoma", "COUNTY": "Pierce", "STATE": "WA", "ZIP_CODE": "98409", "LNG": -122.4833145, "LAT": 47.2083621 }, "geometry": { "type": "Point", "coordinates": [ -122.4833145, 47.2083621 ] } },
{ "type": "Feature", "properties": { "NAME": "BJ's Beauty & Barber College", "STUDENT_POPULATION": 25, "INSTITUTION_TYPE": "Private for-profit", "DEGREE_TYPE": "2-year", "CAMPUS_SETTING_TYPE": "City", "CAMPUS_SETTING_SIZE": "Small", "ADDRESS": "435 E Main St", "CITY": "Auburn", "COUNTY": "King", "STATE": "WA", "ZIP_CODE": "98002", "LNG": -122.2233025, "LAT": 47.3082769 }, "geometry": { "type": "Point", "coordinates": [ -122.2233025, 47.3082769 ] } },
{ "type": "Feature", "properties": { "NAME": "Carrington College-Spokane", "STUDENT_POPULATION": 407, "INSTITUTION_TYPE": "Private for-profit", "DEGREE_TYPE": "2-year", "CAMPUS_SETTING_TYPE": "City", "CAMPUS_SETTING_SIZE": "Small", "ADDRESS": "10102 E Knox Ave #200", "CITY": "Spokane Valley", "COUNTY": "Spokane", "STATE": "WA", "ZIP_CODE": "99206", "LNG": -117.2680638, "LAT": 47.6758822 }, "geometry": { "type": "Point", "coordinates": [ -117.2680638, 47.6758822 ] } },
{ "type": "Feature", "properties": { "NAME": "Cascadia College", "STUDENT_POPULATION": 3434, "INSTITUTION_TYPE": "Public", "DEGREE_TYPE": "4-year", "CAMPUS_SETTING_TYPE": "Suburb", "CAMPUS_SETTING_SIZE": "Large", "ADDRESS": "18345 Campus Way NE", "CITY": "Bothell", "COUNTY": "King", "STATE": "WA", "ZIP_CODE": "98011", "LNG": -122.1913677, "LAT": 47.7609327 }, "geometry": { "type": "Point", "coordinates": [ -122.1913677, 47.7609327 ] } },
{ "type": "Feature", "properties": { "NAME": "Central Washington University", "STUDENT_POPULATION": 11971, "INSTITUTION_TYPE": "Public", "DEGREE_TYPE": "4-year", "CAMPUS_SETTING_TYPE": "Town", "CAMPUS_SETTING_SIZE": "Distant", "ADDRESS": "400 E University Way", "CITY": "Ellensburg", "COUNTY": "Kittitas", "STATE": "WA", "ZIP_CODE": "98926", "LNG": -120.5421058, "LAT": 47.000356 }, "geometry": { "type": "Point", "coordinates": [ -120.5421058, 47.000356 ] } },
{ "type": "Feature", "properties": { "NAME": "Centralia College", "STUDENT_POPULATION": 3265, "INSTITUTION_TYPE": "Public", "DEGREE_TYPE": "4-year", "CAMPUS_SETTING_TYPE": "Town", "CAMPUS_SETTING_SIZE": "Distant", "ADDRESS": "600 Centralia College Blvd", "CITY": "Centralia", "COUNTY": "Lewis", "STATE": "WA", "ZIP_CODE": "98531", "LNG": -122.9607541, "LAT": 46.7153384 }, "geometry": { "type": "Point", "coordinates": [ -122.9607541, 46.7153384 ] } },
{ "type": "Feature", "properties": { "NAME": "Charter College", "STUDENT_POPULATION": 2676, "INSTITUTION_TYPE": "Private for-profit", "DEGREE_TYPE": "4-year", "CAMPUS_SETTING_TYPE": "City", "CAMPUS_SETTING_SIZE": "Midsize", "ADDRESS": "17200 SE Mill Plain Blvd #100", "CITY": "Vancouver", "COUNTY": "Clark", "STATE": "WA", "ZIP_CODE": "98683", "LNG": -122.4947557, "LAT": 45.6178325 }, "geometry": { "type": "Point", "coordinates": [ -122.4947557, 45.6178325 ] } },
{ "type": "Feature", "properties": { "NAME": "City University of Seattle", "STUDENT_POPULATION": 1874, "INSTITUTION_TYPE": "Private not-for-profit", "DEGREE_TYPE": "4-year", "CAMPUS_SETTING_TYPE": "City", "CAMPUS_SETTING_SIZE": "Large", "ADDRESS": "521 Wall St #100", "CITY": "Seattle", "COUNTY": "King", "STATE": "WA", "ZIP_CODE": "98121", "LNG": -122.3444932, "LAT": 47.6174173 }, "geometry": { "type": "Point", "coordinates": [ -122.3444932, 47.6174173 ] } },
{ "type": "Feature", "properties": { "NAME": "Clark College", "STUDENT_POPULATION": 10318, "INSTITUTION_TYPE": "Public", "DEGREE_TYPE": "4-year", "CAMPUS_SETTING_TYPE": "City", "CAMPUS_SETTING_SIZE": "Midsize", "ADDRESS": "1933 Fort Vancouver Way", "CITY": "Vancouver", "COUNTY": "Clark", "STATE": "WA", "ZIP_CODE": "98661", "LNG": -122.6502812, "LAT": 45.6346831 }, "geometry": { "type": "Point", "coordinates": [ -122.6502812, 45.6346831 ] } },
{ "type": "Feature", "properties": { "NAME": "Clover Park Technical College", "STUDENT_POPULATION": 3978, "INSTITUTION_TYPE": "Public", "DEGREE_TYPE": "4-year", "CAMPUS_SETTING_TYPE": "City", "CAMPUS_SETTING_SIZE": "Small", "ADDRESS": "4500 Steilacoom Blvd SW", "CITY": "Lakewood", "COUNTY": "Pierce", "STATE": "WA", "ZIP_CODE": "98499", "LNG": -122.4998848, "LAT": 47.1746864 }, "geometry": { "type": "Point", "coordinates": [ -122.4998848, 47.1746864 ] } },
{ "type": "Feature", "properties": { "NAME": "Columbia Basin College", "STUDENT_POPULATION": 6489, "INSTITUTION_TYPE": "Public", "DEGREE_TYPE": "4-year", "CAMPUS_SETTING_TYPE": "Suburb", "CAMPUS_SETTING_SIZE": "Midsize", "ADDRESS": "2600 N 20th Ave", "CITY": "Pasco", "COUNTY": "Franklin", "STATE": "WA", "ZIP_CODE": "99301", "LNG": -119.123838, "LAT": 46.2520805 }, "geometry": { "type": "Point", "coordinates": [ -119.123838, 46.2520805 ] } },
{ "type": "Feature", "properties": { "NAME": "Columbia College - Naval Station Everett\/Marysville", "STUDENT_POPULATION": null, "INSTITUTION_TYPE": "Private not-for-profit", "DEGREE_TYPE": "4-year", "CAMPUS_SETTING_TYPE": "Suburb", "CAMPUS_SETTING_SIZE": "Midsize", "ADDRESS": "13910 45th Ave NE #802", "CITY": "Marysville", "COUNTY": "Snohomish", "STATE": "WA", "ZIP_CODE": "98271", "LNG": -122.1711657, "LAT": 48.1228926 }, "geometry": { "type": "Point", "coordinates": [ -122.1711657, 48.1228926 ] } },
{ "type": "Feature", "properties": { "NAME": "Columbia College - Whidbey Island", "STUDENT_POPULATION": null, "INSTITUTION_TYPE": "Private not-for-profit", "DEGREE_TYPE": "4-year", "CAMPUS_SETTING_TYPE": "Town", "CAMPUS_SETTING_SIZE": "Distant", "ADDRESS": "1045 Midway St #117", "CITY": "Oak Harbor", "COUNTY": "Island", "STATE": "WA", "ZIP_CODE": "98277", "LNG": -122.6714419, "LAT": 48.337895 }, "geometry": { "type": "Point", "coordinates": [ -122.6714419, 48.337895 ] } },
{ "type": "Feature", "properties": { "NAME": "Cornish College of the Arts", "STUDENT_POPULATION": 674, "INSTITUTION_TYPE": "Private not-for-profit", "DEGREE_TYPE": "4-year", "CAMPUS_SETTING_TYPE": "City", "CAMPUS_SETTING_SIZE": "Large", "ADDRESS": "1000 Lenora St", "CITY": "Seattle", "COUNTY": "King", "STATE": "WA", "ZIP_CODE": "98121", "LNG": -122.3360955, "LAT": 47.6181654 }, "geometry": { "type": "Point", "coordinates": [ -122.3360955, 47.6181654 ] } },
{ "type": "Feature", "properties": { "NAME": "Cortiva Institute-Seattle", "STUDENT_POPULATION": 150, "INSTITUTION_TYPE": "Private for-profit", "DEGREE_TYPE": "< 2-year", "CAMPUS_SETTING_TYPE": "Suburb", "CAMPUS_SETTING_SIZE": "Large", "ADDRESS": "2030 S 314th St", "CITY": "Federal Way", "COUNTY": "King", "STATE": "WA", "ZIP_CODE": "98003", "LNG": -122.307556, "LAT": 47.3211305 }, "geometry": { "type": "Point", "coordinates": [ -122.307556, 47.3211305 ] } },
{ "type": "Feature", "properties": { "NAME": "Cortiva Institute-Seattle", "STUDENT_POPULATION": 142, "INSTITUTION_TYPE": "Private for-profit", "DEGREE_TYPE": "< 2-year", "CAMPUS_SETTING_TYPE": "City", "CAMPUS_SETTING_SIZE": "Large", "ADDRESS": "425 Pontius Ave N #100", "CITY": "Seattle", "COUNTY": "King", "STATE": "WA", "ZIP_CODE": "98109", "LNG": -122.3320619, "LAT": 47.6227491 }, "geometry": { "type": "Point", "coordinates": [ -122.3320619, 47.6227491 ] } },
{ "type": "Feature", "properties": { "NAME": "DigiPen Institute of Technology", "STUDENT_POPULATION": 1062, "INSTITUTION_TYPE": "Private for-profit", "DEGREE_TYPE": "4-year", "CAMPUS_SETTING_TYPE": "City", "CAMPUS_SETTING_SIZE": "Small", "ADDRESS": "9931 Willows Rd", "CITY": "Redmond", "COUNTY": "King", "STATE": "WA", "ZIP_CODE": "98052", "LNG": -122.150315, "LAT": 47.688818 }, "geometry": { "type": "Point", "coordinates": [ -122.150315, 47.688818 ] } },
{ "type": "Feature", "properties": { "NAME": "Divers Institute of Technology", "STUDENT_POPULATION": 259, "INSTITUTION_TYPE": "Private for-profit", "DEGREE_TYPE": "< 2-year", "CAMPUS_SETTING_TYPE": "City", "CAMPUS_SETTING_SIZE": "Large", "ADDRESS": "1341 N Northlake Way #150", "CITY": "Seattle", "COUNTY": "King", "STATE": "WA", "ZIP_CODE": "98103", "LNG": -122.3408424, "LAT": 47.6473944 }, "geometry": { "type": "Point", "coordinates": [ -122.3408424, 47.6473944 ] } },
{ "type": "Feature", "properties": { "NAME": "Eastern Washington University", "STUDENT_POPULATION": 12279, "INSTITUTION_TYPE": "Public", "DEGREE_TYPE": "4-year", "CAMPUS_SETTING_TYPE": "Town", "CAMPUS_SETTING_SIZE": "Fringe", "ADDRESS": "526 5th St", "CITY": "Cheney", "COUNTY": "Spokane", "STATE": "WA", "ZIP_CODE": "99004", "LNG": -117.5779793, "LAT": 47.4908212 }, "geometry": { "type": "Point", "coordinates": [ -117.5779793, 47.4908212 ] } },
{ "type": "Feature", "properties": { "NAME": "Edmonds Community College", "STUDENT_POPULATION": 8348, "INSTITUTION_TYPE": "Public", "DEGREE_TYPE": "4-year", "CAMPUS_SETTING_TYPE": "Suburb", "CAMPUS_SETTING_SIZE": "Large", "ADDRESS": "20000 68th Ave W", "CITY": "Lynnwood", "COUNTY": "Snohomish", "STATE": "WA", "ZIP_CODE": "98036", "LNG": -122.3269451, "LAT": 47.8162094 }, "geometry": { "type": "Point", "coordinates": [ -122.3269451, 47.8162094 ] } },
{ "type": "Feature", "properties": { "NAME": "Elite Cosmetology, Barber & Spa Academy", "STUDENT_POPULATION": null, "INSTITUTION_TYPE": "Private for-profit", "DEGREE_TYPE": "< 2-year", "CAMPUS_SETTING_TYPE": null, "CAMPUS_SETTING_SIZE": null, "ADDRESS": "2606 W Nob Hill Blvd", "CITY": "Yakima", "COUNTY": "Yakima", "STATE": "WA", "ZIP_CODE": "98902", "LNG": -120.5437852, "LAT": 46.5840339 }, "geometry": { "type": "Point", "coordinates": [ -120.5437852, 46.5840339 ] } },
{ "type": "Feature", "properties": { "NAME": "Everett Community College", "STUDENT_POPULATION": 7619, "INSTITUTION_TYPE": "Public", "DEGREE_TYPE": "2-year", "CAMPUS_SETTING_TYPE": "City", "CAMPUS_SETTING_SIZE": "Midsize", "ADDRESS": "2000 Tower St", "CITY": "Everett", "COUNTY": "Snohomish", "STATE": "WA", "ZIP_CODE": "98201", "LNG": -122.2038966, "LAT": 48.0059772 }, "geometry": { "type": "Point", "coordinates": [ -122.2038966, 48.0059772 ] } },
{ "type": "Feature", "properties": { "NAME": "Evergreen Beauty and Barber College-Bellevue", "STUDENT_POPULATION": 46, "INSTITUTION_TYPE": "Private for-profit", "DEGREE_TYPE": "< 2-year", "CAMPUS_SETTING_TYPE": "City", "CAMPUS_SETTING_SIZE": "Midsize", "ADDRESS": "14045 NE 20th St", "CITY": "Bellevue", "COUNTY": "King", "STATE": "WA", "ZIP_CODE": "98007", "LNG": -122.1525443, "LAT": 47.6275171 }, "geometry": { "type": "Point", "coordinates": [ -122.1525443, 47.6275171 ] } },
{ "type": "Feature", "properties": { "NAME": "Evergreen Beauty and Barber College-Everett", "STUDENT_POPULATION": 122, "INSTITUTION_TYPE": "Private for-profit", "DEGREE_TYPE": "< 2-year", "CAMPUS_SETTING_TYPE": "City", "CAMPUS_SETTING_SIZE": "Midsize", "ADDRESS": "802 SE Everett Mall Way a", "CITY": "Everett", "COUNTY": "Snohomish", "STATE": "WA", "ZIP_CODE": "98208", "LNG": -122.2219928, "LAT": 47.9092676 }, "geometry": { "type": "Point", "coordinates": [ -122.2219928, 47.9092676 ] } },
{ "type": "Feature", "properties": { "NAME": "Faith International University", "STUDENT_POPULATION": 588, "INSTITUTION_TYPE": "Private not-for-profit", "DEGREE_TYPE": "4-year", "CAMPUS_SETTING_TYPE": "City", "CAMPUS_SETTING_SIZE": "Midsize", "ADDRESS": "3504 N Pearl St", "CITY": "Tacoma", "COUNTY": "Pierce", "STATE": "WA", "ZIP_CODE": "98407", "LNG": -122.5170163, "LAT": 47.2801266 }, "geometry": { "type": "Point", "coordinates": [ -122.5170163, 47.2801266 ] } },
{ "type": "Feature", "properties": { "NAME": "Fosbre Academy of Hair Design", "STUDENT_POPULATION": 12, "INSTITUTION_TYPE": "Private for-profit", "DEGREE_TYPE": "< 2-year", "CAMPUS_SETTING_TYPE": "City", "CAMPUS_SETTING_SIZE": "Small", "ADDRESS": "111 Capitol Way N", "CITY": "Olympia", "COUNTY": "Thurston", "STATE": "WA", "ZIP_CODE": "98501", "LNG": -122.9020946, "LAT": 47.0452388 }, "geometry": { "type": "Point", "coordinates": [ -122.9020946, 47.0452388 ] } },
{ "type": "Feature", "properties": { "NAME": "Gary Manuel Aveda Institute", "STUDENT_POPULATION": 266, "INSTITUTION_TYPE": "Private for-profit", "DEGREE_TYPE": "< 2-year", "CAMPUS_SETTING_TYPE": "City", "CAMPUS_SETTING_SIZE": "Large", "ADDRESS": "1514 10th Ave", "CITY": "Seattle", "COUNTY": "King", "STATE": "WA", "ZIP_CODE": "98122", "LNG": -122.3191174, "LAT": 47.6144661 }, "geometry": { "type": "Point", "coordinates": [ -122.3191174, 47.6144661 ] } },
{ "type": "Feature", "properties": { "NAME": "Gene Juarez Academy of Beauty-Federal Way", "STUDENT_POPULATION": 199, "INSTITUTION_TYPE": "Private for-profit", "DEGREE_TYPE": "< 2-year", "CAMPUS_SETTING_TYPE": "Suburb", "CAMPUS_SETTING_SIZE": "Large", "ADDRESS": "2222 S 314th St", "CITY": "Federal Way", "COUNTY": "King", "STATE": "WA", "ZIP_CODE": "98003", "LNG": -122.3043969, "LAT": 47.32052 }, "geometry": { "type": "Point", "coordinates": [ -122.3043969, 47.32052 ] } },
{ "type": "Feature", "properties": { "NAME": "Gene Juarez Academy of Beauty-Mountlake Terrace", "STUDENT_POPULATION": 164, "INSTITUTION_TYPE": "Private for-profit", "DEGREE_TYPE": "< 2-year", "CAMPUS_SETTING_TYPE": "Suburb", "CAMPUS_SETTING_SIZE": "Large", "ADDRESS": "6007 244th St SW", "CITY": "Mountlake Terrace", "COUNTY": "Snohomish", "STATE": "WA", "ZIP_CODE": "98043", "LNG": -122.3127721, "LAT": 47.7791313 }, "geometry": { "type": "Point", "coordinates": [ -122.3127721, 47.7791313 ] } },
{ "type": "Feature", "properties": { "NAME": "Glen Dow Academy of Hair Design", "STUDENT_POPULATION": 88, "INSTITUTION_TYPE": "Private for-profit", "DEGREE_TYPE": "< 2-year", "CAMPUS_SETTING_TYPE": "City", "CAMPUS_SETTING_SIZE": "Midsize", "ADDRESS": "309 W Riverside Ave", "CITY": "Spokane", "COUNTY": "Spokane", "STATE": "WA", "ZIP_CODE": "99201", "LNG": -117.4165077, "LAT": 47.6577102 }, "geometry": { "type": "Point", "coordinates": [ -117.4165077, 47.6577102 ] } },
{ "type": "Feature", "properties": { "NAME": "Golden Gate University-Seattle", "STUDENT_POPULATION": null, "INSTITUTION_TYPE": "Private not-for-profit", "DEGREE_TYPE": "4-year", "CAMPUS_SETTING_TYPE": "City", "CAMPUS_SETTING_SIZE": "Large", "ADDRESS": "1424 4th Ave #410", "CITY": "Seattle", "COUNTY": "King", "STATE": "WA", "ZIP_CODE": "98101", "LNG": -122.3361383, "LAT": 47.6101261 }, "geometry": { "type": "Point", "coordinates": [ -122.3361383, 47.6101261 ] } },
{ "type": "Feature", "properties": { "NAME": "Gonzaga University", "STUDENT_POPULATION": 7567, "INSTITUTION_TYPE": "Private not-for-profit", "DEGREE_TYPE": "4-year", "CAMPUS_SETTING_TYPE": "City", "CAMPUS_SETTING_SIZE": "Midsize", "ADDRESS": "502 E Boone Ave", "CITY": "Spokane", "COUNTY": "Spokane", "STATE": "WA", "ZIP_CODE": "99258", "LNG": -117.4013338, "LAT": 47.6672354 }, "geometry": { "type": "Point", "coordinates": [ -117.4013338, 47.6672354 ] } },
{ "type": "Feature", "properties": { "NAME": "Grays Harbor College", "STUDENT_POPULATION": 1973, "INSTITUTION_TYPE": "Public", "DEGREE_TYPE": "4-year", "CAMPUS_SETTING_TYPE": "Rural", "CAMPUS_SETTING_SIZE": "Fringe", "ADDRESS": "1620 Edward P Smith Dr", "CITY": "Aberdeen", "COUNTY": "Grays Harbor", "STATE": "WA", "ZIP_CODE": "98520", "LNG": -123.8033796, "LAT": 46.9538135 }, "geometry": { "type": "Point", "coordinates": [ -123.8033796, 46.9538135 ] } },
{ "type": "Feature", "properties": { "NAME": "Green River College", "STUDENT_POPULATION": 8050, "INSTITUTION_TYPE": "Public", "DEGREE_TYPE": "4-year", "CAMPUS_SETTING_TYPE": "City", "CAMPUS_SETTING_SIZE": "Small", "ADDRESS": "12401 SE 320th St", "CITY": "Auburn", "COUNTY": "King", "STATE": "WA", "ZIP_CODE": "98092", "LNG": -122.1800119, "LAT": 47.3130004 }, "geometry": { "type": "Point", "coordinates": [ -122.1800119, 47.3130004 ] } },
{ "type": "Feature", "properties": { "NAME": "Heritage University", "STUDENT_POPULATION": 1124, "INSTITUTION_TYPE": "Private not-for-profit", "DEGREE_TYPE": "4-year", "CAMPUS_SETTING_TYPE": "Rural", "CAMPUS_SETTING_SIZE": "Fringe", "ADDRESS": "3240 Fort Rd", "CITY": "Toppenish", "COUNTY": "Yakima", "STATE": "WA", "ZIP_CODE": "98948", "LNG": -120.3959918, "LAT": 46.3758068 }, "geometry": { "type": "Point", "coordinates": [ -120.3959918, 46.3758068 ] } },
{ "type": "Feature", "properties": { "NAME": "Highline College", "STUDENT_POPULATION": 6750, "INSTITUTION_TYPE": "Public", "DEGREE_TYPE": "4-year", "CAMPUS_SETTING_TYPE": "Suburb", "CAMPUS_SETTING_SIZE": "Large", "ADDRESS": "2400 S 240th St", "CITY": "Des Moines", "COUNTY": "King", "STATE": "WA", "ZIP_CODE": "98198", "LNG": -122.3002856, "LAT": 47.3897813 }, "geometry": { "type": "Point", "coordinates": [ -122.3002856, 47.3897813 ] } },
{ "type": "Feature", "properties": { "NAME": "Inland Massage Institute", "STUDENT_POPULATION": 37, "INSTITUTION_TYPE": "Private for-profit", "DEGREE_TYPE": "< 2-year", "CAMPUS_SETTING_TYPE": "City", "CAMPUS_SETTING_SIZE": "Midsize", "ADDRESS": "775 E Holland Ave #110", "CITY": "Spokane", "COUNTY": "Spokane", "STATE": "WA", "ZIP_CODE": "99218", "LNG": -117.3973035, "LAT": 47.7442395 }, "geometry": { "type": "Point", "coordinates": [ -117.3973035, 47.7442395 ] } },
{ "type": "Feature", "properties": { "NAME": "International Air and Hospitality Academy", "STUDENT_POPULATION": 85, "INSTITUTION_TYPE": "Private for-profit", "DEGREE_TYPE": "< 2-year", "CAMPUS_SETTING_TYPE": "City", "CAMPUS_SETTING_SIZE": "Midsize", "ADDRESS": "2901 E Mill Plain Blvd", "CITY": "Vancouver", "COUNTY": "Clark", "STATE": "WA", "ZIP_CODE": "98661", "LNG": -122.6397902, "LAT": 45.6278281 }, "geometry": { "type": "Point", "coordinates": [ -122.6397902, 45.6278281 ] } },
{ "type": "Feature", "properties": { "NAME": "International Beauty Education Center", "STUDENT_POPULATION": 23, "INSTITUTION_TYPE": "Private for-profit", "DEGREE_TYPE": "< 2-year", "CAMPUS_SETTING_TYPE": "Suburb", "CAMPUS_SETTING_SIZE": "Large", "ADDRESS": "12832 W Sunset Hwy", "CITY": "Airway Heights", "COUNTY": "Spokane", "STATE": "WA", "ZIP_CODE": "99001", "LNG": -117.5890766, "LAT": 47.6432042 }, "geometry": { "type": "Point", "coordinates": [ -117.5890766, 47.6432042 ] } },
{ "type": "Feature", "properties": { "NAME": "Lake Washington Institute of Technology", "STUDENT_POPULATION": 3652, "INSTITUTION_TYPE": "Public", "DEGREE_TYPE": "4-year", "CAMPUS_SETTING_TYPE": "Suburb", "CAMPUS_SETTING_SIZE": "Large", "ADDRESS": "11605 132nd Ave NE", "CITY": "Kirkland", "COUNTY": "King", "STATE": "WA", "ZIP_CODE": "98034", "LNG": -122.1670273, "LAT": 47.704691 }, "geometry": { "type": "Point", "coordinates": [ -122.1670273, 47.704691 ] } },
{ "type": "Feature", "properties": { "NAME": "Lower Columbia College", "STUDENT_POPULATION": 2787, "INSTITUTION_TYPE": "Public", "DEGREE_TYPE": "2-year", "CAMPUS_SETTING_TYPE": "City", "CAMPUS_SETTING_SIZE": "Small", "ADDRESS": "1600 Maple St", "CITY": "Longview", "COUNTY": "Cowlitz", "STATE": "WA", "ZIP_CODE": "98632", "LNG": -122.9363414, "LAT": 46.1427245 }, "geometry": { "type": "Point", "coordinates": [ -122.9363414, 46.1427245 ] } },
{ "type": "Feature", "properties": { "NAME": "Montessori Education Institute of the Pacific Northwest", "STUDENT_POPULATION": 30, "INSTITUTION_TYPE": "Private not-for-profit", "DEGREE_TYPE": "2-year", "CAMPUS_SETTING_TYPE": "Suburb", "CAMPUS_SETTING_SIZE": "Large", "ADDRESS": "19102 North Creek Pkwy", "CITY": "Bothell", "COUNTY": "King", "STATE": "WA", "ZIP_CODE": "98011", "LNG": -122.1833756, "LAT": 47.7668801 }, "geometry": { "type": "Point", "coordinates": [ -122.1833756, 47.7668801 ] } },
{ "type": "Feature", "properties": { "NAME": "Moody Bible Institute-Spokane", "STUDENT_POPULATION": null, "INSTITUTION_TYPE": "Private not-for-profit", "DEGREE_TYPE": "4-year", "CAMPUS_SETTING_TYPE": "City", "CAMPUS_SETTING_SIZE": "Midsize", "ADDRESS": "611 E Indiana Ave", "CITY": "Spokane", "COUNTY": "Spokane", "STATE": "WA", "ZIP_CODE": "99207", "LNG": -117.400589, "LAT": 47.6756392 }, "geometry": { "type": "Point", "coordinates": [ -117.400589, 47.6756392 ] } },
{ "type": "Feature", "properties": { "NAME": "North Seattle College", "STUDENT_POPULATION": 6266, "INSTITUTION_TYPE": "Public", "DEGREE_TYPE": "4-year", "CAMPUS_SETTING_TYPE": "City", "CAMPUS_SETTING_SIZE": "Large", "ADDRESS": "9600 College Way N", "CITY": "Seattle", "COUNTY": "King", "STATE": "WA", "ZIP_CODE": "98103", "LNG": -122.3327214, "LAT": 47.6983877 }, "geometry": { "type": "Point", "coordinates": [ -122.3327214, 47.6983877 ] } },
{ "type": "Feature", "properties": { "NAME": "Northwest College of Art & Design", "STUDENT_POPULATION": 98, "INSTITUTION_TYPE": "Private for-profit", "DEGREE_TYPE": "4-year", "CAMPUS_SETTING_TYPE": "Rural", "CAMPUS_SETTING_SIZE": "Fringe", "ADDRESS": "16301 Creative Dr NE", "CITY": "Poulsbo", "COUNTY": "Kitsap", "STATE": "WA", "ZIP_CODE": "98370", "LNG": -122.602589, "LAT": 47.7107835 }, "geometry": { "type": "Point", "coordinates": [ -122.602589, 47.7107835 ] } },
{ "type": "Feature", "properties": { "NAME": "Northwest HVAC\/R Training Center", "STUDENT_POPULATION": 46, "INSTITUTION_TYPE": "Private not-for-profit", "DEGREE_TYPE": "< 2-year", "CAMPUS_SETTING_TYPE": "City", "CAMPUS_SETTING_SIZE": "Midsize", "ADDRESS": "204 E Nora Ave", "CITY": "Spokane", "COUNTY": "Spokane", "STATE": "WA", "ZIP_CODE": "99207", "LNG": -117.4076278, "LAT": 47.6736171 }, "geometry": { "type": "Point", "coordinates": [ -117.4076278, 47.6736171 ] } },
{ "type": "Feature", "properties": { "NAME": "Northwest Indian College", "STUDENT_POPULATION": 579, "INSTITUTION_TYPE": "Public", "DEGREE_TYPE": "4-year", "CAMPUS_SETTING_TYPE": "Rural", "CAMPUS_SETTING_SIZE": "Fringe", "ADDRESS": "2522 Kwina Rd", "CITY": "Bellingham", "COUNTY": "Whatcom", "STATE": "WA", "ZIP_CODE": "98226", "LNG": -122.614492, "LAT": 48.79461 }, "geometry": { "type": "Point", "coordinates": [ -122.614492, 48.79461 ] } },
{ "type": "Feature", "properties": { "NAME": "Northwest School of Wooden Boat Building", "STUDENT_POPULATION": 39, "INSTITUTION_TYPE": "Private not-for-profit", "DEGREE_TYPE": "2-year", "CAMPUS_SETTING_TYPE": "Rural", "CAMPUS_SETTING_SIZE": "Fringe", "ADDRESS": "42 N Water St", "CITY": "Port Hadlock", "COUNTY": "Jefferson", "STATE": "WA", "ZIP_CODE": "98339", "LNG": -122.7524812, "LAT": 48.0338874 }, "geometry": { "type": "Point", "coordinates": [ -122.7524812, 48.0338874 ] } },
{ "type": "Feature", "properties": { "NAME": "Northwest University", "STUDENT_POPULATION": 1226, "INSTITUTION_TYPE": "Private not-for-profit", "DEGREE_TYPE": "4-year", "CAMPUS_SETTING_TYPE": "Suburb", "CAMPUS_SETTING_SIZE": "Large", "ADDRESS": "5520 108th Ave NE", "CITY": "Kirkland", "COUNTY": "King", "STATE": "WA", "ZIP_CODE": "98033", "LNG": -122.1958015, "LAT": 47.6575062 }, "geometry": { "type": "Point", "coordinates": [ -122.1958015, 47.6575062 ] } },
{ "type": "Feature", "properties": { "NAME": "Northwest University-College of Adult and Professional Studies", "STUDENT_POPULATION": 966, "INSTITUTION_TYPE": "Private not-for-profit", "DEGREE_TYPE": "4-year", "CAMPUS_SETTING_TYPE": "Suburb", "CAMPUS_SETTING_SIZE": "Large", "ADDRESS": "5520 108th Ave NE", "CITY": "Kirkland", "COUNTY": "King", "STATE": "WA", "ZIP_CODE": "98033", "LNG": -122.192352, "LAT": 47.6577112 }, "geometry": { "type": "Point", "coordinates": [ -122.192352, 47.6577112 ] } },
{ "type": "Feature", "properties": { "NAME": "Olympic College", "STUDENT_POPULATION": 6527, "INSTITUTION_TYPE": "Public", "DEGREE_TYPE": "4-year", "CAMPUS_SETTING_TYPE": "City", "CAMPUS_SETTING_SIZE": "Small", "ADDRESS": "1600 Chester Ave", "CITY": "Bremerton", "COUNTY": "Kitsap", "STATE": "WA", "ZIP_CODE": "98337", "LNG": -122.6352126, "LAT": 47.575258 }, "geometry": { "type": "Point", "coordinates": [ -122.6352126, 47.575258 ] } },
{ "type": "Feature", "properties": { "NAME": "Pacific Lutheran University", "STUDENT_POPULATION": 3070, "INSTITUTION_TYPE": "Private not-for-profit", "DEGREE_TYPE": "4-year", "CAMPUS_SETTING_TYPE": "Suburb", "CAMPUS_SETTING_SIZE": "Large", "ADDRESS": "12180 Park Ave S", "CITY": "Tacoma", "COUNTY": "Pierce", "STATE": "WA", "ZIP_CODE": "98447", "LNG": -122.4436669, "LAT": 47.1451931 }, "geometry": { "type": "Point", "coordinates": [ -122.4436669, 47.1451931 ] } },
{ "type": "Feature", "properties": { "NAME": "Pacific Northwest University of Health Sciences", "STUDENT_POPULATION": 568, "INSTITUTION_TYPE": "Private not-for-profit", "DEGREE_TYPE": "4-year", "CAMPUS_SETTING_TYPE": "Suburb", "CAMPUS_SETTING_SIZE": "Midsize", "ADDRESS": "200 University Pkwy", "CITY": "Yakima", "COUNTY": "Yakima", "STATE": "WA", "ZIP_CODE": "98901", "LNG": -120.4561259, "LAT": 46.6028674 }, "geometry": { "type": "Point", "coordinates": [ -120.4561259, 46.6028674 ] } },
{ "type": "Feature", "properties": { "NAME": "Paroba College of Cosmetology", "STUDENT_POPULATION": 141, "INSTITUTION_TYPE": "Private for-profit", "DEGREE_TYPE": "< 2-year", "CAMPUS_SETTING_TYPE": "City", "CAMPUS_SETTING_SIZE": "Midsize", "ADDRESS": "9930 Evergreen Way", "CITY": "Everett", "COUNTY": "Snohomish", "STATE": "WA", "ZIP_CODE": "98204", "LNG": -122.2427221, "LAT": 47.9078005 }, "geometry": { "type": "Point", "coordinates": [ -122.2427221, 47.9078005 ] } },
{ "type": "Feature", "properties": { "NAME": "Paul Mitchell the School-Richland", "STUDENT_POPULATION": 158, "INSTITUTION_TYPE": "Private for-profit", "DEGREE_TYPE": "< 2-year", "CAMPUS_SETTING_TYPE": "City", "CAMPUS_SETTING_SIZE": "Small", "ADDRESS": "71 Gage Blvd", "CITY": "Richland", "COUNTY": "Benton", "STATE": "WA", "ZIP_CODE": "99352", "LNG": -119.2461217, "LAT": 46.226197 }, "geometry": { "type": "Point", "coordinates": [ -119.2461217, 46.226197 ] } },
{ "type": "Feature", "properties": { "NAME": "Paul Mitchell the School-Spokane", "STUDENT_POPULATION": 166, "INSTITUTION_TYPE": "Private for-profit", "DEGREE_TYPE": "2-year", "CAMPUS_SETTING_TYPE": "City", "CAMPUS_SETTING_SIZE": "Small", "ADDRESS": "15303 E Sprague Ave c", "CITY": "Spokane Valley", "COUNTY": "Spokane", "STATE": "WA", "ZIP_CODE": "99037", "LNG": -117.1991737, "LAT": 47.6582047 }, "geometry": { "type": "Point", "coordinates": [ -117.1991737, 47.6582047 ] } },
{ "type": "Feature", "properties": { "NAME": "Peninsula College", "STUDENT_POPULATION": 2173, "INSTITUTION_TYPE": "Public", "DEGREE_TYPE": "4-year", "CAMPUS_SETTING_TYPE": "Town", "CAMPUS_SETTING_SIZE": "Remote", "ADDRESS": "1502 E Lauridsen Blvd", "CITY": "Port Angeles", "COUNTY": "Clallam", "STATE": "WA", "ZIP_CODE": "98362", "LNG": -123.4125566, "LAT": 48.1018573 }, "geometry": { "type": "Point", "coordinates": [ -123.4125566, 48.1018573 ] } },
{ "type": "Feature", "properties": { "NAME": "Perry Technical Institute", "STUDENT_POPULATION": 837, "INSTITUTION_TYPE": "Private not-for-profit", "DEGREE_TYPE": "2-year", "CAMPUS_SETTING_TYPE": "City", "CAMPUS_SETTING_SIZE": "Small", "ADDRESS": "2011 W Washington Ave", "CITY": "Yakima", "COUNTY": "Yakima", "STATE": "WA", "ZIP_CODE": "98903", "LNG": -120.537226, "LAT": 46.571795 }, "geometry": { "type": "Point", "coordinates": [ -120.537226, 46.571795 ] } },
{ "type": "Feature", "properties": { "NAME": "Pierce College-Fort Steilacoom", "STUDENT_POPULATION": 6068, "INSTITUTION_TYPE": "Public", "DEGREE_TYPE": "4-year", "CAMPUS_SETTING_TYPE": "City", "CAMPUS_SETTING_SIZE": "Small", "ADDRESS": "9401 Farwest Dr SW", "CITY": "Lakewood", "COUNTY": "Pierce", "STATE": "WA", "ZIP_CODE": "98498", "LNG": -122.5714768, "LAT": 47.171431 }, "geometry": { "type": "Point", "coordinates": [ -122.5714768, 47.171431 ] } },
{ "type": "Feature", "properties": { "NAME": "Pierce College-Puyallup", "STUDENT_POPULATION": 4094, "INSTITUTION_TYPE": "Public", "DEGREE_TYPE": "2-year", "CAMPUS_SETTING_TYPE": "Suburb", "CAMPUS_SETTING_SIZE": "Large", "ADDRESS": "1601 39th Ave SE", "CITY": "Puyallup", "COUNTY": "Pierce", "STATE": "WA", "ZIP_CODE": "98374", "LNG": -122.2718169, "LAT": 47.1560707 }, "geometry": { "type": "Point", "coordinates": [ -122.2718169, 47.1560707 ] } },
{ "type": "Feature", "properties": { "NAME": "Pima Medical Institute-Renton", "STUDENT_POPULATION": 689, "INSTITUTION_TYPE": "Private for-profit", "DEGREE_TYPE": "2-year", "CAMPUS_SETTING_TYPE": "City", "CAMPUS_SETTING_SIZE": "Midsize", "ADDRESS": "555 S Renton Village Pl #400", "CITY": "Renton", "COUNTY": "King", "STATE": "WA", "ZIP_CODE": "98057", "LNG": -122.2112966, "LAT": 47.4690858 }, "geometry": { "type": "Point", "coordinates": [ -122.2112966, 47.4690858 ] } },
{ "type": "Feature", "properties": { "NAME": "Pima Medical Institute-Seattle", "STUDENT_POPULATION": 607, "INSTITUTION_TYPE": "Private for-profit", "DEGREE_TYPE": "2-year", "CAMPUS_SETTING_TYPE": "City", "CAMPUS_SETTING_SIZE": "Large", "ADDRESS": "9709 3rd Ave NE #400", "CITY": "Seattle", "COUNTY": "King", "STATE": "WA", "ZIP_CODE": "98115", "LNG": -122.326788, "LAT": 47.699259 }, "geometry": { "type": "Point", "coordinates": [ -122.326788, 47.699259 ] } },
{ "type": "Feature", "properties": { "NAME": "Pinchot University", "STUDENT_POPULATION": 45, "INSTITUTION_TYPE": "Private not-for-profit", "DEGREE_TYPE": "4-year", "CAMPUS_SETTING_TYPE": "City", "CAMPUS_SETTING_SIZE": "Large", "ADDRESS": "220 2nd Ave S #400", "CITY": "Seattle", "COUNTY": "King", "STATE": "WA", "ZIP_CODE": "98104", "LNG": -122.331212, "LAT": 47.6005134 }, "geometry": { "type": "Point", "coordinates": [ -122.331212, 47.6005134 ] } },
{ "type": "Feature", "properties": { "NAME": "Professional Beauty School", "STUDENT_POPULATION": 17, "INSTITUTION_TYPE": "Private for-profit", "DEGREE_TYPE": "< 2-year", "CAMPUS_SETTING_TYPE": "City", "CAMPUS_SETTING_SIZE": "Small", "ADDRESS": "2105 W Lincoln Ave #2", "CITY": "Yakima", "COUNTY": "Yakima", "STATE": "WA", "ZIP_CODE": "98902", "LNG": -120.5375238, "LAT": 46.6046175 }, "geometry": { "type": "Point", "coordinates": [ -120.5375238, 46.6046175 ] } },
{ "type": "Feature", "properties": { "NAME": "Renton Technical College", "STUDENT_POPULATION": 3587, "INSTITUTION_TYPE": "Public", "DEGREE_TYPE": "4-year", "CAMPUS_SETTING_TYPE": "City", "CAMPUS_SETTING_SIZE": "Midsize", "ADDRESS": "3000 NE 4th St", "CITY": "Renton", "COUNTY": "King", "STATE": "WA", "ZIP_CODE": "98056", "LNG": -122.1763431, "LAT": 47.4892822 }, "geometry": { "type": "Point", "coordinates": [ -122.1763431, 47.4892822 ] } },
{ "type": "Feature", "properties": { "NAME": "Saint Martin's University", "STUDENT_POPULATION": 1586, "INSTITUTION_TYPE": "Private not-for-profit", "DEGREE_TYPE": "4-year", "CAMPUS_SETTING_TYPE": "Suburb", "CAMPUS_SETTING_SIZE": "Midsize", "ADDRESS": "5000 Abbey Way SE", "CITY": "Lacey", "COUNTY": "Thurston", "STATE": "WA", "ZIP_CODE": "98503", "LNG": -122.8154461, "LAT": 47.0405654 }, "geometry": { "type": "Point", "coordinates": [ -122.8154461, 47.0405654 ] } },
{ "type": "Feature", "properties": { "NAME": "Sanford-Brown College-Seattle", "STUDENT_POPULATION": 86, "INSTITUTION_TYPE": "Private for-profit", "DEGREE_TYPE": "4-year", "CAMPUS_SETTING_TYPE": "Suburb", "CAMPUS_SETTING_SIZE": "Large", "ADDRESS": "645 Andover Park W", "CITY": "Tukwila", "COUNTY": "King", "STATE": "WA", "ZIP_CODE": "98188", "LNG": -122.2550047, "LAT": 47.4503164 }, "geometry": { "type": "Point", "coordinates": [ -122.2550047, 47.4503164 ] } },
{ "type": "Feature", "properties": { "NAME": "Seattle Central College", "STUDENT_POPULATION": 6705, "INSTITUTION_TYPE": "Public", "DEGREE_TYPE": "4-year", "CAMPUS_SETTING_TYPE": "City", "CAMPUS_SETTING_SIZE": "Large", "ADDRESS": "1701 Broadway", "CITY": "Seattle", "COUNTY": "King", "STATE": "WA", "ZIP_CODE": "98122", "LNG": -122.3216707, "LAT": 47.616732 }, "geometry": { "type": "Point", "coordinates": [ -122.3216707, 47.616732 ] } },
{ "type": "Feature", "properties": { "NAME": "Seattle Film Institute", "STUDENT_POPULATION": 71, "INSTITUTION_TYPE": "Private for-profit", "DEGREE_TYPE": "4-year", "CAMPUS_SETTING_TYPE": "City", "CAMPUS_SETTING_SIZE": "Large", "ADDRESS": "3210 16th Ave W", "CITY": "Seattle", "COUNTY": "King", "STATE": "WA", "ZIP_CODE": "98119", "LNG": -122.3771501, "LAT": 47.6489676 }, "geometry": { "type": "Point", "coordinates": [ -122.3771501, 47.6489676 ] } },
{ "type": "Feature", "properties": { "NAME": "Seattle Institute of Oriental Medicine", "STUDENT_POPULATION": 22, "INSTITUTION_TYPE": "Private for-profit", "DEGREE_TYPE": "4-year", "CAMPUS_SETTING_TYPE": "City", "CAMPUS_SETTING_SIZE": "Large", "ADDRESS": "444 NE Ravenna Blvd #208", "CITY": "Seattle", "COUNTY": "King", "STATE": "WA", "ZIP_CODE": "98115", "LNG": -122.3232192, "LAT": 47.6781462 }, "geometry": { "type": "Point", "coordinates": [ -122.3232192, 47.6781462 ] } },
{ "type": "Feature", "properties": { "NAME": "Seattle Pacific University", "STUDENT_POPULATION": 4061, "INSTITUTION_TYPE": "Private not-for-profit", "DEGREE_TYPE": "4-year", "CAMPUS_SETTING_TYPE": "City", "CAMPUS_SETTING_SIZE": "Large", "ADDRESS": "3307 3rd Ave W", "CITY": "Seattle", "COUNTY": "King", "STATE": "WA", "ZIP_CODE": "98119", "LNG": -122.3617421, "LAT": 47.649116 }, "geometry": { "type": "Point", "coordinates": [ -122.3617421, 47.649116 ] } },
{ "type": "Feature", "properties": { "NAME": "Seattle University", "STUDENT_POPULATION": 7487, "INSTITUTION_TYPE": "Private not-for-profit", "DEGREE_TYPE": "4-year", "CAMPUS_SETTING_TYPE": "City", "CAMPUS_SETTING_SIZE": "Large", "ADDRESS": "900 Broadway", "CITY": "Seattle", "COUNTY": "King", "STATE": "WA", "ZIP_CODE": "98122", "LNG": -122.3207835, "LAT": 47.6102654 }, "geometry": { "type": "Point", "coordinates": [ -122.3207835, 47.6102654 ] } },
{ "type": "Feature", "properties": { "NAME": "Shoreline Community College", "STUDENT_POPULATION": 5805, "INSTITUTION_TYPE": "Public", "DEGREE_TYPE": "2-year", "CAMPUS_SETTING_TYPE": "Suburb", "CAMPUS_SETTING_SIZE": "Large", "ADDRESS": "16101 Greenwood Ave N", "CITY": "Shoreline", "COUNTY": "King", "STATE": "WA", "ZIP_CODE": "98133", "LNG": -122.3594244, "LAT": 47.7486311 }, "geometry": { "type": "Point", "coordinates": [ -122.3594244, 47.7486311 ] } },
{ "type": "Feature", "properties": { "NAME": "Skagit Valley College", "STUDENT_POPULATION": 5086, "INSTITUTION_TYPE": "Public", "DEGREE_TYPE": "4-year", "CAMPUS_SETTING_TYPE": "City", "CAMPUS_SETTING_SIZE": "Small", "ADDRESS": "2405 E College Way", "CITY": "Mt Vernon", "COUNTY": "Skagit", "STATE": "WA", "ZIP_CODE": "98273", "LNG": -122.310386, "LAT": 48.4372623 }, "geometry": { "type": "Point", "coordinates": [ -122.310386, 48.4372623 ] } },
{ "type": "Feature", "properties": { "NAME": "South Puget Sound Community College", "STUDENT_POPULATION": 4861, "INSTITUTION_TYPE": "Public", "DEGREE_TYPE": "2-year", "CAMPUS_SETTING_TYPE": "City", "CAMPUS_SETTING_SIZE": "Small", "ADDRESS": "2011 Mottman Rd SW", "CITY": "Olympia", "COUNTY": "Thurston", "STATE": "WA", "ZIP_CODE": "98512", "LNG": -122.9297411, "LAT": 47.0245027 }, "geometry": { "type": "Point", "coordinates": [ -122.9297411, 47.0245027 ] } },
{ "type": "Feature", "properties": { "NAME": "South Seattle College", "STUDENT_POPULATION": 6346, "INSTITUTION_TYPE": "Public", "DEGREE_TYPE": "4-year", "CAMPUS_SETTING_TYPE": "City", "CAMPUS_SETTING_SIZE": "Large", "ADDRESS": "6000 16th Ave SW", "CITY": "Seattle", "COUNTY": "King", "STATE": "WA", "ZIP_CODE": "98106", "LNG": -122.3527083, "LAT": 47.547708 }, "geometry": { "type": "Point", "coordinates": [ -122.3527083, 47.547708 ] } },
{ "type": "Feature", "properties": { "NAME": "Spokane Community College", "STUDENT_POPULATION": 10100, "INSTITUTION_TYPE": "Public", "DEGREE_TYPE": "4-year", "CAMPUS_SETTING_TYPE": "City", "CAMPUS_SETTING_SIZE": "Midsize", "ADDRESS": "1810 N Greene St", "CITY": "Spokane", "COUNTY": "Spokane", "STATE": "WA", "ZIP_CODE": "99217", "LNG": -117.36366, "LAT": 47.674767 }, "geometry": { "type": "Point", "coordinates": [ -117.36366, 47.674767 ] } },
{ "type": "Feature", "properties": { "NAME": "Spokane Falls Community College", "STUDENT_POPULATION": 5639, "INSTITUTION_TYPE": "Public", "DEGREE_TYPE": "4-year", "CAMPUS_SETTING_TYPE": "City", "CAMPUS_SETTING_SIZE": "Midsize", "ADDRESS": "3410 W Fort George Wright Dr", "CITY": "Spokane", "COUNTY": "Spokane", "STATE": "WA", "ZIP_CODE": "99224", "LNG": -117.4648833, "LAT": 47.6763912 }, "geometry": { "type": "Point", "coordinates": [ -117.4648833, 47.6763912 ] } },
{ "type": "Feature", "properties": { "NAME": "Studio Beauty School", "STUDENT_POPULATION": 52, "INSTITUTION_TYPE": "Private for-profit", "DEGREE_TYPE": "< 2-year", "CAMPUS_SETTING_TYPE": "City", "CAMPUS_SETTING_SIZE": "Midsize", "ADDRESS": "10001 E Sprague Ave", "CITY": "Spokane Valley", "COUNTY": "Spokane", "STATE": "WA", "ZIP_CODE": "99206", "LNG": -117.270363, "LAT": 47.657577 }, "geometry": { "type": "Point", "coordinates": [ -117.270363, 47.657577 ] } },
{ "type": "Feature", "properties": { "NAME": "Stylemaster College of Hair Design", "STUDENT_POPULATION": 78, "INSTITUTION_TYPE": "Private for-profit", "DEGREE_TYPE": "< 2-year", "CAMPUS_SETTING_TYPE": "City", "CAMPUS_SETTING_SIZE": "Small", "ADDRESS": "1224 Commerce Ave", "CITY": "Longview", "COUNTY": "Cowlitz", "STATE": "WA", "ZIP_CODE": "98632", "LNG": -122.9344256, "LAT": 46.1360006 }, "geometry": { "type": "Point", "coordinates": [ -122.9344256, 46.1360006 ] } },
{ "type": "Feature", "properties": { "NAME": "Summit Salon Academy", "STUDENT_POPULATION": 123, "INSTITUTION_TYPE": "Private for-profit", "DEGREE_TYPE": "2-year", "CAMPUS_SETTING_TYPE": "City", "CAMPUS_SETTING_SIZE": "Midsize", "ADDRESS": "3702 S Fife St b102", "CITY": "Tacoma", "COUNTY": "Pierce", "STATE": "WA", "ZIP_CODE": "98409", "LNG": -122.4723064, "LAT": 47.2233571 }, "geometry": { "type": "Point", "coordinates": [ -122.4723064, 47.2233571 ] } },
{ "type": "Feature", "properties": { "NAME": "Sunnyside Beauty Academy", "STUDENT_POPULATION": 8, "INSTITUTION_TYPE": "Private for-profit", "DEGREE_TYPE": "< 2-year", "CAMPUS_SETTING_TYPE": "Town", "CAMPUS_SETTING_SIZE": "Distant", "ADDRESS": "440 Barnard Blvd #2", "CITY": "Sunnyside", "COUNTY": "Yakima", "STATE": "WA", "ZIP_CODE": "98944", "LNG": -119.9865377, "LAT": 46.3246496 }, "geometry": { "type": "Point", "coordinates": [ -119.9865377, 46.3246496 ] } },
{ "type": "Feature", "properties": { "NAME": "Tacoma Community College", "STUDENT_POPULATION": 6699, "INSTITUTION_TYPE": "Public", "DEGREE_TYPE": "4-year", "CAMPUS_SETTING_TYPE": "City", "CAMPUS_SETTING_SIZE": "Midsize", "ADDRESS": "6501 S 19th St", "CITY": "Tacoma", "COUNTY": "Pierce", "STATE": "WA", "ZIP_CODE": "98466", "LNG": -122.5242986, "LAT": 47.2458173 }, "geometry": { "type": "Point", "coordinates": [ -122.5242986, 47.2458173 ] } },
{ "type": "Feature", "properties": { "NAME": "The Art Institute of Seattle", "STUDENT_POPULATION": 965, "INSTITUTION_TYPE": "Private for-profit", "DEGREE_TYPE": "4-year", "CAMPUS_SETTING_TYPE": "City", "CAMPUS_SETTING_SIZE": "Large", "ADDRESS": "2323 Elliott Ave", "CITY": "Seattle", "COUNTY": "King", "STATE": "WA", "ZIP_CODE": "98121", "LNG": -122.3490915, "LAT": 47.6122848 }, "geometry": { "type": "Point", "coordinates": [ -122.3490915, 47.6122848 ] } },
{ "type": "Feature", "properties": { "NAME": "The Evergreen State College", "STUDENT_POPULATION": 4089, "INSTITUTION_TYPE": "Public", "DEGREE_TYPE": "4-year", "CAMPUS_SETTING_TYPE": "Suburb", "CAMPUS_SETTING_SIZE": "Midsize", "ADDRESS": "2700 Evergreen Pkwy NW", "CITY": "Olympia", "COUNTY": "Thurston", "STATE": "WA", "ZIP_CODE": "98505", "LNG": -122.974597, "LAT": 47.073705 }, "geometry": { "type": "Point", "coordinates": [ -122.974597, 47.073705 ] } },
{ "type": "Feature", "properties": { "NAME": "The Seattle School of Theology & Psychology", "STUDENT_POPULATION": 300, "INSTITUTION_TYPE": "Private not-for-profit", "DEGREE_TYPE": "4-year", "CAMPUS_SETTING_TYPE": "City", "CAMPUS_SETTING_SIZE": "Large", "ADDRESS": "2501 Elliott Ave", "CITY": "Seattle", "COUNTY": "King", "STATE": "WA", "ZIP_CODE": "98121", "LNG": -122.3509002, "LAT": 47.6132986 }, "geometry": { "type": "Point", "coordinates": [ -122.3509002, 47.6132986 ] } },
{ "type": "Feature", "properties": { "NAME": "Tint School of Makeup & Cosmetology-Seattle", "STUDENT_POPULATION": 114, "INSTITUTION_TYPE": "Private for-profit", "DEGREE_TYPE": "< 2-year", "CAMPUS_SETTING_TYPE": "City", "CAMPUS_SETTING_SIZE": "Large", "ADDRESS": "300 Pine St", "CITY": "Seattle", "COUNTY": "King", "STATE": "WA", "ZIP_CODE": "98101", "LNG": -122.3385843, "LAT": 47.6114875 }, "geometry": { "type": "Point", "coordinates": [ -122.3385843, 47.6114875 ] } },
{ "type": "Feature", "properties": { "NAME": "Toni & Guy Hairdressing Academy-Shoreline", "STUDENT_POPULATION": 78, "INSTITUTION_TYPE": "Private for-profit", "DEGREE_TYPE": "< 2-year", "CAMPUS_SETTING_TYPE": "Suburb", "CAMPUS_SETTING_SIZE": "Large", "ADDRESS": "18336 Aurora Ave N #103", "CITY": "Shoreline", "COUNTY": "King", "STATE": "WA", "ZIP_CODE": "98133", "LNG": -122.3445285, "LAT": 47.7619611 }, "geometry": { "type": "Point", "coordinates": [ -122.3445285, 47.7619611 ] } },
{ "type": "Feature", "properties": { "NAME": "University of Phoenix-Washington", "STUDENT_POPULATION": 242, "INSTITUTION_TYPE": "Private for-profit", "DEGREE_TYPE": "4-year", "CAMPUS_SETTING_TYPE": "Suburb", "CAMPUS_SETTING_SIZE": "Large", "ADDRESS": "7100 Fort Dent Way", "CITY": "Tukwila", "COUNTY": "King", "STATE": "WA", "ZIP_CODE": "98188", "LNG": -122.2463454, "LAT": 47.4683763 }, "geometry": { "type": "Point", "coordinates": [ -122.2463454, 47.4683763 ] } },
{ "type": "Feature", "properties": { "NAME": "University of Puget Sound", "STUDENT_POPULATION": 2791, "INSTITUTION_TYPE": "Private not-for-profit", "DEGREE_TYPE": "4-year", "CAMPUS_SETTING_TYPE": "City", "CAMPUS_SETTING_SIZE": "Midsize", "ADDRESS": "1500 N Warner St", "CITY": "Tacoma", "COUNTY": "Pierce", "STATE": "WA", "ZIP_CODE": "98416", "LNG": -122.4784424, "LAT": 47.2643167 }, "geometry": { "type": "Point", "coordinates": [ -122.4784424, 47.2643167 ] } },
{ "type": "Feature", "properties": { "NAME": "University of Washington-Bothell Campus", "STUDENT_POPULATION": 5734, "INSTITUTION_TYPE": "Public", "DEGREE_TYPE": "4-year", "CAMPUS_SETTING_TYPE": "Suburb", "CAMPUS_SETTING_SIZE": "Large", "ADDRESS": "18115 Campus Way NE", "CITY": "Bothell", "COUNTY": "King", "STATE": "WA", "ZIP_CODE": "98011", "LNG": -122.1906495, "LAT": 47.7589 }, "geometry": { "type": "Point", "coordinates": [ -122.1906495, 47.7589 ] } },
{ "type": "Feature", "properties": { "NAME": "University of Washington-Seattle Campus", "STUDENT_POPULATION": 45591, "INSTITUTION_TYPE": "Public", "DEGREE_TYPE": "4-year", "CAMPUS_SETTING_TYPE": "City", "CAMPUS_SETTING_SIZE": "Large", "ADDRESS": "1400 NE Campus Pkwy", "CITY": "Seattle", "COUNTY": "King", "STATE": "WA", "ZIP_CODE": "98105", "LNG": -122.3127075, "LAT": 47.6565538 }, "geometry": { "type": "Point", "coordinates": [ -122.3127075, 47.6565538 ] } },
{ "type": "Feature", "properties": { "NAME": "University of Washington-Tacoma Campus", "STUDENT_POPULATION": 4987, "INSTITUTION_TYPE": "Public", "DEGREE_TYPE": "4-year", "CAMPUS_SETTING_TYPE": "City", "CAMPUS_SETTING_SIZE": "Midsize", "ADDRESS": "1900 Commerce St", "CITY": "Tacoma", "COUNTY": "Pierce", "STATE": "WA", "ZIP_CODE": "98402", "LNG": -122.4388664, "LAT": 47.2466316 }, "geometry": { "type": "Point", "coordinates": [ -122.4388664, 47.2466316 ] } },
{ "type": "Feature", "properties": { "NAME": "Victoria's Academy of Cosmetology", "STUDENT_POPULATION": 82, "INSTITUTION_TYPE": "Private for-profit", "DEGREE_TYPE": "< 2-year", "CAMPUS_SETTING_TYPE": "City", "CAMPUS_SETTING_SIZE": "Small", "ADDRESS": "23 W 1st Ave", "CITY": "Kennewick", "COUNTY": "Benton", "STATE": "WA", "ZIP_CODE": "99336", "LNG": -119.1180393, "LAT": 46.2068015 }, "geometry": { "type": "Point", "coordinates": [ -119.1180393, 46.2068015 ] } },
{ "type": "Feature", "properties": { "NAME": "Walla Walla Community College", "STUDENT_POPULATION": 4327, "INSTITUTION_TYPE": "Public", "DEGREE_TYPE": "2-year", "CAMPUS_SETTING_TYPE": "City", "CAMPUS_SETTING_SIZE": "Small", "ADDRESS": "500 Tausick Way", "CITY": "Walla Walla", "COUNTY": "Walla Walla", "STATE": "WA", "ZIP_CODE": "99362", "LNG": -118.2831388, "LAT": 46.079109 }, "geometry": { "type": "Point", "coordinates": [ -118.2831388, 46.079109 ] } },
{ "type": "Feature", "properties": { "NAME": "Walla Walla University", "STUDENT_POPULATION": 1894, "INSTITUTION_TYPE": "Private not-for-profit", "DEGREE_TYPE": "4-year", "CAMPUS_SETTING_TYPE": "Suburb", "CAMPUS_SETTING_SIZE": "Small", "ADDRESS": "204 S College Ave", "CITY": "College Place", "COUNTY": "Walla Walla", "STATE": "WA", "ZIP_CODE": "99324", "LNG": -118.3895857, "LAT": 46.0475193 }, "geometry": { "type": "Point", "coordinates": [ -118.3895857, 46.0475193 ] } },
{ "type": "Feature", "properties": { "NAME": "Washington State University", "STUDENT_POPULATION": 30142, "INSTITUTION_TYPE": "Public", "DEGREE_TYPE": "4-year", "CAMPUS_SETTING_TYPE": "Town", "CAMPUS_SETTING_SIZE": "Distant", "ADDRESS": "1500 Glenn Terrell Mall", "CITY": "Pullman", "COUNTY": "Whitman", "STATE": "WA", "ZIP_CODE": "99163", "LNG": -117.162063, "LAT": 46.7308894 }, "geometry": { "type": "Point", "coordinates": [ -117.162063, 46.7308894 ] } },
{ "type": "Feature", "properties": { "NAME": "Washington State University-Spokane", "STUDENT_POPULATION": null, "INSTITUTION_TYPE": "Public", "DEGREE_TYPE": "4-year", "CAMPUS_SETTING_TYPE": "City", "CAMPUS_SETTING_SIZE": "Midsize", "ADDRESS": "412 E Spokane Falls Blvd", "CITY": "Spokane", "COUNTY": "Spokane", "STATE": "WA", "ZIP_CODE": "99202", "LNG": -117.4050926, "LAT": 47.6602492 }, "geometry": { "type": "Point", "coordinates": [ -117.4050926, 47.6602492 ] } },
{ "type": "Feature", "properties": { "NAME": "Washington State University-Tri Cities", "STUDENT_POPULATION": null, "INSTITUTION_TYPE": "Public", "DEGREE_TYPE": "4-year", "CAMPUS_SETTING_TYPE": "City", "CAMPUS_SETTING_SIZE": "Small", "ADDRESS": "2710 Crimson Way", "CITY": "Richland", "COUNTY": "Benton", "STATE": "WA", "ZIP_CODE": "99354", "LNG": -119.2625945, "LAT": 46.3305025 }, "geometry": { "type": "Point", "coordinates": [ -119.2625945, 46.3305025 ] } },
{ "type": "Feature", "properties": { "NAME": "Washington State University-Vancouver", "STUDENT_POPULATION": null, "INSTITUTION_TYPE": "Public", "DEGREE_TYPE": "4-year", "CAMPUS_SETTING_TYPE": "Suburb", "CAMPUS_SETTING_SIZE": "Large", "ADDRESS": "14204 NE Salmon Creek Ave", "CITY": "Vancouver", "COUNTY": "Clark", "STATE": "WA", "ZIP_CODE": "98686", "LNG": -122.6327994, "LAT": 45.7251707 }, "geometry": { "type": "Point", "coordinates": [ -122.6327994, 45.7251707 ] } },
{ "type": "Feature", "properties": { "NAME": "Wenatchee Valley College", "STUDENT_POPULATION": 3440, "INSTITUTION_TYPE": "Public", "DEGREE_TYPE": "4-year", "CAMPUS_SETTING_TYPE": "City", "CAMPUS_SETTING_SIZE": "Small", "ADDRESS": "1300 Fifth St", "CITY": "Wenatchee", "COUNTY": "Chelan", "STATE": "WA", "ZIP_CODE": "98801", "LNG": -120.3354938, "LAT": 47.4312399 }, "geometry": { "type": "Point", "coordinates": [ -120.3354938, 47.4312399 ] } },
{ "type": "Feature", "properties": { "NAME": "Western Washington University", "STUDENT_POPULATION": 15574, "INSTITUTION_TYPE": "Public", "DEGREE_TYPE": "4-year", "CAMPUS_SETTING_TYPE": "City", "CAMPUS_SETTING_SIZE": "Small", "ADDRESS": "516 High St", "CITY": "Bellingham", "COUNTY": "Whatcom", "STATE": "WA", "ZIP_CODE": "98225", "LNG": -122.4860257, "LAT": 48.7379412 }, "geometry": { "type": "Point", "coordinates": [ -122.4860257, 48.7379412 ] } },
{ "type": "Feature", "properties": { "NAME": "Whatcom Community College", "STUDENT_POPULATION": 4507, "INSTITUTION_TYPE": "Public", "DEGREE_TYPE": "4-year", "CAMPUS_SETTING_TYPE": "City", "CAMPUS_SETTING_SIZE": "Small", "ADDRESS": "237 W Kellogg Rd", "CITY": "Bellingham", "COUNTY": "Whatcom", "STATE": "WA", "ZIP_CODE": "98226", "LNG": -122.4925861, "LAT": 48.7947551 }, "geometry": { "type": "Point", "coordinates": [ -122.4925861, 48.7947551 ] } },
{ "type": "Feature", "properties": { "NAME": "Whitman College", "STUDENT_POPULATION": 1493, "INSTITUTION_TYPE": "Private not-for-profit", "DEGREE_TYPE": "4-year", "CAMPUS_SETTING_TYPE": "City", "CAMPUS_SETTING_SIZE": "Small", "ADDRESS": "345 Boyer Ave", "CITY": "Walla Walla", "COUNTY": "Walla Walla", "STATE": "WA", "ZIP_CODE": "99362", "LNG": -118.3295838, "LAT": 46.070899 }, "geometry": { "type": "Point", "coordinates": [ -118.3295838, 46.070899 ] } },
{ "type": "Feature", "properties": { "NAME": "Whitworth University", "STUDENT_POPULATION": 2634, "INSTITUTION_TYPE": "Private not-for-profit", "DEGREE_TYPE": "4-year", "CAMPUS_SETTING_TYPE": "Suburb", "CAMPUS_SETTING_SIZE": "Large", "ADDRESS": "300 W Hawthorne Rd", "CITY": "Spokane", "COUNTY": "Spokane", "STATE": "WA", "ZIP_CODE": "99251", "LNG": -117.4162864, "LAT": 47.753226 }, "geometry": { "type": "Point", "coordinates": [ -117.4162864, 47.753226 ] } },
{ "type": "Feature", "properties": { "NAME": "Whitworth University-Adult Degree Programs", "STUDENT_POPULATION": 331, "INSTITUTION_TYPE": "Private not-for-profit", "DEGREE_TYPE": "4-year", "CAMPUS_SETTING_TYPE": "Suburb", "CAMPUS_SETTING_SIZE": "Large", "ADDRESS": "300 W Hawthorne Rd", "CITY": "Spokane", "COUNTY": "Spokane", "STATE": "WA", "ZIP_CODE": "99251", "LNG": -117.4162864, "LAT": 47.753226 }, "geometry": { "type": "Point", "coordinates": [ -117.4162864, 47.753226 ] } },
{ "type": "Feature", "properties": { "NAME": "Yakima Valley College", "STUDENT_POPULATION": 4101, "INSTITUTION_TYPE": "Public", "DEGREE_TYPE": "4-year", "CAMPUS_SETTING_TYPE": "City", "CAMPUS_SETTING_SIZE": "Small", "ADDRESS": "W Nob Hill Blvd & S 16th Ave", "CITY": "Yakima", "COUNTY": "Yakima", "STATE": "WA", "ZIP_CODE": "98902", "LNG": -120.530311, "LAT": 46.585236 }, "geometry": { "type": "Point", "coordinates": [ -120.530311, 46.585236 ] } }
]
}
